Entidad,Municipio,Subdelegacion,Clues,Tipo,Nombre,Nivel,Situacion,Latitud,Longitud,Tipo Vialidad,Vialidad,Numero,Tipo Asentamiento,Asentamiento,CP,Direccion Completa,Nombre Completo
Aguascalientes,Aguascalientes,Aguascalientes,ASIST000016,Hospital General,Aguascalientes,Segundo Nivel,Propia,21.902,-102.3073,Avenida,Universidad Esquina San Cosme,410,Fraccionamiento,San Cayetano,20010,"Avenida Universidad Esquina San Cosme 410, Fraccionamiento San Cayetano, Aguascalientes, Aguascalientes, CP. 20010",HG Aguascalientes
Aguascalientes,Aguascalientes,Aguascalientes,ASIST000021,Clínica de Medicina Familiar,Aguascalientes,Primer Nivel,Propia,21.9013,-102.3078,Calle,San Cosme,S/N,Fraccionamiento,San Cayetano,20010,"Calle San Cosme S/N, Fraccionamiento San Cayetano, Aguascalientes, Aguascalientes, CP. 20010",CMF Aguascalientes
Aguascalientes,Calvillo,Aguascalientes,ASIST000050,Unidad de Medicina Familiar,Calvillo,Primer Nivel,Propia,21.8451,-102.7309,Calle,Galeana,S/N,Fraccionamiento,Independencia,20800,"Calle Galeana S/N, Fraccionamiento Independencia, Calvillo, Aguascalientes, CP. 20800",UMF Calvillo
Aguascalientes,Pabellón de Arteaga,Aguascalientes,ASIST000033,Unidad de Medicina Familiar,Pabellón de Arteaga,Primer Nivel,Propia,22.1409,-102.2778,Calle,Revolución,S/N,Fraccionamiento,Popular,20660,"Calle Revolución S/N, Fraccionamiento Popular, Pabellón de Arteaga, Aguascalientes, CP. 20660",UMF Pabellón de Arteaga
Aguascalientes,Rincón de Romos,Aguascalientes,ASIST000045,Unidad de Medicina Familiar,Rincón de Romos,Primer Nivel,Propia,22.2291,-102.3138,Calle,Plaza El Chaveño Delfino V. Araujo,S/N,Barrio,De Guadalupe,20400,"Calle Plaza El Chaveño Delfino V. Araujo S/N, Barrio De Guadalupe, Rincón de Romos, Aguascalientes, CP. 20400",UMF Rincón de Romos
Aguascalientes,Asientos,Aguascalientes,ASIST000074,Unidad de Medicina Familiar,Villa Juárez,Primer Nivel,Propia,22.088,-102.0736,Calle,Alameda,S/N,Colonia,La Sierra,20700,"Calle Alameda S/N, Colonia La Sierra, Asientos, Aguascalientes, CP. 20700",UMF Villa Juárez
Aguascalientes,San José de Gracia,Aguascalientes,ASIST000103,Consultorio de Atención Familiar,San José de Gracia,Primer Nivel,Convenio,22.1506,-102.4162,Calle,Juan Esteban,S/N,Colonia,Centro,20276,"Calle Juan Esteban S/N, Colonia Centro, San José de Gracia, Aguascalientes, CP. 20276",CAF San José de Gracia
Aguascalientes,Cosío,Aguascalientes,ASIST000115,Consultorio de Atención Familiar,Cosío,Primer Nivel,Convenio,22.3665,-102.3006,Calle,Guerrero,S/N,Colonia,Centro,20460,"Calle Guerrero S/N, Colonia Centro, Cosío, Aguascalientes, CP. 20460",CAF Cosío
Aguascalientes,El Llano,Aguascalientes,ASIST000120,Consultorio de Atención Familiar,Palo Alto,Primer Nivel,Convenio,21.9182,-101.9696,Calle,Constitución,S/N,Barrio,Del Salto,20330,"Calle Constitución S/N, Barrio Del Salto, El Llano, Aguascalientes, CP. 20330",CAF Palo Alto
Aguascalientes,San Francisco de los Romo,Aguascalientes,ASIST000131,Consultorio de Atención Familiar,San Francisco de los Romo,Primer Nivel,Convenio,22.0797,-102.2756,Calle,Independencia,S/N,Colonia,Centro,20300,"Calle Independencia S/N, Colonia Centro, San Francisco de los Romo, Aguascalientes, CP. 20300",CAF San Francisco de los Romo
Aguascalientes,Aguascalientes,Aguascalientes,ASIST000062,Clínica de Medicina Familiar,Ojocaliente,Primer Nivel,Propia,21.8711,-102.2454,Calle,Siglo XXI,S/N,Fraccionamiento,Solidaridad I,20196,"Calle Siglo XXI S/N, Fraccionamiento Solidaridad I, Aguascalientes, Aguascalientes, CP. 20196",CMF Ojocaliente
Baja California,Mexicali,Baja California,BCIST000040,Hospital General,"5 de Diciembre, Mexicali",Segundo Nivel,Propia,32.6435,-115.4761,Calle,Hospital,S/N,Colonia,Centro Cívico,21000,"Calle Hospital S/N, Colonia Centro Cívico, Mexicali, Baja California, CP. 21000","HG 5 de Diciembre, Mexicali"
Baja California,Mexicali,Baja California,BCIST000076,Unidad de Medicina Familiar,Los Algodones,Primer Nivel,Propia,32.6223,-115.3927,Calle,Venustiano Carranza,S/N,Ejido,Los Algodones,21970,"Calle Venustiano Carranza S/N, Ejido Los Algodones, Mexicali, Baja California, CP. 21970",UMF Los Algodones
Baja California,Mexicali,Baja California,BCIST000052,Consultorio de Atención Familiar,Estación Delta,Primer Nivel,Convenio,32.6546,-115.4286,Boulevard,Sánchez Taboada,S/N,Ejido,Estación Delta,21700,"Boulevard Sánchez Taboada S/N, Ejido Estación Delta, Mexicali, Baja California, CP. 21700",CAF Estación Delta
Baja California,Mexicali,Baja California,BCIST000064,Unidad de Medicina Familiar,San Felipe,Primer Nivel,Propia,31.0131,-114.844,Avenida,Campo Las Arenas,S/N,Puerto,San Felipe,21850,"Avenida Campo Las Arenas S/N, Puerto San Felipe, Mexicali, Baja California, CP. 21850",UMF San Felipe
Baja California,Ensenada,Baja California,BCIST000011,Clinica Hospital,Ensenada,Segundo Nivel,Propia,31.8504,-116.6078,Avenida,Sangines,S/N,Colonia,Carlos Pacheco,22830,"Avenida Sangines S/N, Colonia Carlos Pacheco, Ensenada, Baja California, CP. 22830",CH Ensenada
Baja California,Ensenada,Baja California,BCIST000023,Consultorio de Atención Familiar,Isla de Cedros,Primer Nivel,En Proceso de Regularización,28.098,-115.1907,Calle,Mutualismo ,S/N,Ejido,Isla De Cedros,22906,"Calle Mutualismo  S/N, Ejido Isla De Cedros, Ensenada, Baja California, CP. 22906",CAF Isla de Cedros
Baja California,San Quintín,Baja California,BCIST000035,Unidad de Medicina Familiar,San Quintín,Primer Nivel,Propia,30.557,-115.9385,Calle,Novena,S/N,Fraccionamiento,San Quintín,22930,"Calle Novena S/N, Fraccionamiento San Quintín, San Quintín, Baja California, CP. 22930",UMF San Quintín
Baja California,Ensenada,Baja California,BCIST000105,Consultorio de Atención Familiar,San Vicente,Primer Nivel,Subrogada,31.3291,-116.2461,Calle,Séptima,S/N,Ejido,San Vicente,22900,"Calle Séptima S/N, Ejido San Vicente, Ensenada, Baja California, CP. 22900",CAF San Vicente
Baja California,Ensenada,Baja California,BCIST000110,Consultorio de Atención Familiar,Valle de la Trinidad,Primer Nivel,Subrogada,31.3307,-115.5391,Avenida,Colon,S/N,Colonia,Centro,22797,"Avenida Colon S/N, Colonia Centro, Ensenada, Baja California, CP. 22797",CAF Valle de la Trinidad
Baja California,Ensenada,Baja California,BCIST000122,Consultorio de Atención Familiar,El Rosario,Primer Nivel,Subrogada,30.0611,-115.7241,Carretera,Transpeninsula,S/N,Ejido,Nuevo Uruapan,22960,"Carretera Transpeninsula S/N, Ejido Nuevo Uruapan, Ensenada, Baja California, CP. 22960",CAF El Rosario
Baja California,Tijuana,Baja California,BCIST000146,Clínica de Medicina Familiar,Mesa de Otay,Primer Nivel,Propia,32.5463,-116.9338,Calle,Silvestre Revueltas,S/N,Fraccionamiento,Nueva Tijuana,24435,"Calle Silvestre Revueltas S/N, Fraccionamiento Nueva Tijuana, Tijuana, Baja California, CP. 24435",CMF Mesa de Otay
Baja California,Tijuana,Baja California,BCIST000093,Hospital General,"Fray Junípero Serra, Tijuana",Segundo Nivel,Propia,32.5085,-116.9851,Avenida,Las Palmas,S/N,Fraccionamiento,Las Palmas,22440,"Avenida Las Palmas S/N, Fraccionamiento Las Palmas, Tijuana, Baja California, CP. 22440","HG Fray Junípero Serra, Tijuana"
Baja California,Tijuana,Baja California,BCIST000134,Consultorio de Atención Familiar,Rosarito,Primer Nivel,Subrogada,32.3592,-117.0636,Calle,Altamirano,S/N,Colonia,Magisterial,22710,"Calle Altamirano S/N, Colonia Magisterial, Tijuana, Baja California, CP. 22710",CAF Rosarito
Baja California,Tecate,Baja California,BCIST000081,Unidad de Medicina Familiar,Tecate,Primer Nivel,Propia,32.5695,-116.6059,Avenida,Mulege,S/N,Fraccionamiento,FOVISSSTE,21478,"Avenida Mulege S/N, Fraccionamiento FOVISSSTE, Tecate, Baja California, CP. 21478",UMF Tecate
Baja California Sur,Comondú,Baja California Sur,BSIST000014,Clinica Hospital,Cd. Constitución,Segundo Nivel,Propia,25.0341,-111.6461,Boulevard,Niños Heroes,S/N,Ciudad,Pueblo Nuevo,23670,"Boulevard Niños Heroes S/N, Ciudad Pueblo Nuevo, Comondú, Baja California Sur, CP. 23670",CH Cd. Constitución
Baja California Sur,Loreto,Baja California Sur,BSIST000113,Unidad de Medicina Familiar,Loreto,Primer Nivel,Propia,26.0084,-111.3535,Calle,Nicolás  Tamaral,S/N,Colonia,Centro,23880,"Calle Nicolás  Tamaral S/N, Colonia Centro, Loreto, Baja California Sur, CP. 23880",UMF Loreto
Baja California Sur,Comondú,Baja California Sur,BSIST000130,Consultorio de Atención Familiar,Puerto Adolfo López Mateos,Primer Nivel,Subrogada,25.1912,-112.111,Calle,Puerto López Mateos,S/N,Colonia,Centro,23710,"Calle Puerto López Mateos S/N, Colonia Centro, Comondú, Baja California Sur, CP. 23710",CAF Puerto Adolfo López Mateos
Baja California Sur,Comondú,Baja California Sur,BSIST000031,Unidad de Medicina Familiar,Puerto San Carlos,Primer Nivel,Propia,24.7853,-112.098,Calle,Puerto Adolfo López Mateos,S/N,Colonia,Centro,23740,"Calle Puerto Adolfo López Mateos S/N, Colonia Centro, Comondú, Baja California Sur, CP. 23740",UMF Puerto San Carlos
Baja California Sur,Comondú,Baja California Sur,BSIST000166,Consultorio de Atención Familiar,San Isidro,Primer Nivel,Subrogada,26.2039,-112.043,Calle,San Isidro,S/N,Colonia,Centro,23810,"Calle San Isidro S/N, Colonia Centro, Comondú, Baja California Sur, CP. 23810",CAF San Isidro
Baja California Sur,Comondú,Baja California Sur,BSIST000142,Consultorio de Atención Familiar,San José de Comondú,Primer Nivel,Subrogada,24.1362,-110.3032,Calle,San José de Comondú,S/N,Colonia,Centro,23820,"Calle San José de Comondú S/N, Colonia Centro, Comondú, Baja California Sur, CP. 23820",CAF San José de Comondú
Baja California Sur,Comondú,Baja California Sur,BSIST000026,Unidad de Medicina Familiar,Villa Insurgentes,Primer Nivel,Propia,25.2646,-111.7832,Calle,Avenida Morelos,S/N,Ciudad,Libertad,23700,"Calle Avenida Morelos S/N, Ciudad Libertad, Comondú, Baja California Sur, CP. 23700",UMF Villa Insurgentes
Baja California Sur,Comondú,Baja California Sur,BSIST000154,Consultorio de Atención Familiar,Ignacio Zaragoza,Primer Nivel,Subrogada,25.3984,-111.843,Calle,Josefa Ortíz de Domínguez,S/N,Colonia,Centro,23600,"Calle Josefa Ortíz de Domínguez S/N, Colonia Centro, Comondú, Baja California Sur, CP. 23600",CAF Ignacio Zaragoza
Baja California Sur,Mulegé,Baja California Sur,BSIST000043,Clinica Hospital,Santa Rosalía,Segundo Nivel,Propia,27.3463,-112.2742,Calle,Municipio Libre,S/N,Colonia,Magisterial,23920,"Calle Municipio Libre S/N, Colonia Magisterial, Mulegé, Baja California Sur, CP. 23920",CH Santa Rosalía
Baja California Sur,Mulegé,Baja California Sur,BSIST000171,Consultorio de Atención Familiar,Bahía Asunción,Primer Nivel,Convenio,27.1285,-114.2954,Avenida,Rosaura Zapata,S/N,Colonia,Centro,23960,"Avenida Rosaura Zapata S/N, Colonia Centro, Mulegé, Baja California Sur, CP. 23960",CAF Bahía Asunción
Baja California Sur,Mulegé,Baja California Sur,BSIST000183,Consultorio de Atención Familiar,Bahía Tortugas,Primer Nivel,Subrogada,27.6944,-114.8964,Calle,Río Jordan,S/N,Colonia,Centro,23950,"Calle Río Jordan S/N, Colonia Centro, Mulegé, Baja California Sur, CP. 23950",CAF Bahía Tortugas
Baja California Sur,Mulegé,Baja California Sur,BSIST000055,Unidad de Medicina Familiar,Guerrero Negro,Primer Nivel,Propia,27.9751,-114.0284,Calle,Sebastian Vizcaino,S/N,Colonia,FOVISSSTE,23940,"Calle Sebastian Vizcaino S/N, Colonia FOVISSSTE, Mulegé, Baja California Sur, CP. 23940",UMF Guerrero Negro
Baja California Sur,Mulegé,Baja California Sur,BSIST000195,Consultorio de Atención Familiar,Mulegé,Primer Nivel,Subrogada,26.8913,-111.9816,Calle,Fco. I Madero,S/N,Colonia,Centro,23900,"Calle Fco. I Madero S/N, Colonia Centro, Mulegé, Baja California Sur, CP. 23900",CAF Mulegé
Baja California Sur,Mulegé,Baja California Sur,BSIST000200,Consultorio de Atención Familiar,Punta Abreojos,Primer Nivel,Convenio,26.7146,-113.574,Calle,Ignacio Zaragoza,S/N,Colonia,Centro,23970,"Calle Ignacio Zaragoza S/N, Colonia Centro, Mulegé, Baja California Sur, CP. 23970",CAF Punta Abreojos
Baja California Sur,Mulegé,Baja California Sur,BSIST000212,Consultorio de Atención Familiar,San Ignacio,Primer Nivel,Rentada,27.2806,-112.8967,Calle,Benito Juárez,S/N,Colonia,Centro,23930,"Calle Benito Juárez S/N, Colonia Centro, Mulegé, Baja California Sur, CP. 23930",CAF San Ignacio
Baja California Sur,Mulegé,Baja California Sur,BSIST000060,Unidad de Medicina Familiar,Sebastián Vizcaino,Primer Nivel,Propia,27.6445,-113.3895,Calle,El Marasal,S/N,Colonia,Villa Alberto Alberto Andrpes Alvarado Aramburo,23938,"Calle El Marasal S/N, Colonia Villa Alberto Alberto Andrpes Alvarado Aramburo, Mulegé, Baja California Sur, CP. 23938",UMF Sebastián Vizcaino
Baja California Sur,La Paz,Baja California Sur,BSIST000330,Hospital General,La Paz,Segundo Nivel,Propia,24.1372,-110.3411,Calle,Mar Caribe,S/N,Colonia,El Conchalito,23090,"Calle Mar Caribe S/N, Colonia El Conchalito, La Paz, Baja California Sur, CP. 23090",HG La Paz
Baja California Sur,La Paz,Baja California Sur,BSIST000270,Consultorio de Atención Familiar,El Pescadero,Primer Nivel,Subrogada,23.3651,-110.167,Calle,La Paz,S/N,Colonia,Centro,23000,"Calle La Paz S/N, Colonia Centro, La Paz, Baja California Sur, CP. 23000",CAF El Pescadero
Baja California Sur,La Paz,Baja California Sur,BSIST000265,Consultorio de Atención Familiar,"UH. FOVISSSTE Catra, La Paz.",Primer Nivel,Convenio,24.1488,-110.3046,Calle,Bahía de Muertos,S/N,Colonia,Centro,23020,"Calle Bahía de Muertos S/N, Colonia Centro, La Paz, Baja California Sur, CP. 23020","CAF UH. FOVISSSTE Catra, La Paz."
Baja California Sur,Los Cabos,Baja California Sur,BSIST000294,Consultorio de Atención Familiar,La Ribera,Primer Nivel,Subrogada,23.5909,-109.5917,Calle, Josefina Castillo,S/N,Colonia,Centro,23570,"Calle  Josefina Castillo S/N, Colonia Centro, Los Cabos, Baja California Sur, CP. 23570",CAF La Ribera
Baja California Sur,La Paz,Baja California Sur,BSIST000241,Consultorio de Atención Familiar,Los Barriles,Primer Nivel,Subrogada,23.68,-109.6991,Calle,20 de Noviembre,S/N,Pueblo,Los Barriles,23030,"Calle 20 de Noviembre S/N, Pueblo Los Barriles, La Paz, Baja California Sur, CP. 23030",CAF Los Barriles
Baja California Sur,Los Cabos,Baja California Sur,BSIST000306,Consultorio de Atención Familiar,San Antonio,Primer Nivel,Subrogada,23.8071,-110.0578,Calle,Reforma,24,Colonia,Centro,23200,"Calle Reforma 24, Colonia Centro, Los Cabos, Baja California Sur, CP. 23200",CAF San Antonio
Baja California Sur,Los Cabos,Baja California Sur,BSIST000282,Consultorio de Atención Familiar,Miraflores,Primer Nivel,Subrogada,23.3691,-109.778,Calle,Libertad,S/N,Colonia,Centro,23520,"Calle Libertad S/N, Colonia Centro, Los Cabos, Baja California Sur, CP. 23520",CAF Miraflores
Baja California Sur,La Paz,Baja California Sur,BSIST000236,Consultorio de Atención Familiar,San Juan de los Planes,Primer Nivel,Subrogada,23.9674,-109.9347,Calle,Principal,S/N,Colonia,Centro,23230,"Calle Principal S/N, Colonia Centro, La Paz, Baja California Sur, CP. 23230",CAF San Juan de los Planes
Baja California Sur,Los Cabos,Baja California Sur,BSIST000311,Consultorio de Atención Familiar,Santiago,Primer Nivel,Subrogada,23.4755,-109.718,Calle,Guadalupe Victoria,S/N,Colonia,Centro,23500,"Calle Guadalupe Victoria S/N, Colonia Centro, Los Cabos, Baja California Sur, CP. 23500",CAF Santiago
Baja California Sur,La Paz,Baja California Sur,BSIST000084,Unidad de Medicina Familiar,Todos Santos,Primer Nivel,Propia,23.4469,-110.2251,Calle,Ignacio Zaragoza,S/N,Colonia,Centro,23300,"Calle Ignacio Zaragoza S/N, Colonia Centro, La Paz, Baja California Sur, CP. 23300",UMF Todos Santos
Baja California Sur,La Paz,Baja California Sur,BSIST000224,Consultorio de Atención Familiar,"UH. FOVISSSTE Cihuatán Costa Azul, La Paz",Primer Nivel,Convenio,24.1229,-110.3022,Calle,Colosio Esquina Damiana,S/N,Colonia,Embotelladores,23050,"Calle Colosio Esquina Damiana S/N, Colonia Embotelladores, La Paz, Baja California Sur, CP. 23050","CAF UH. FOVISSSTE Cihuatán Costa Azul, La Paz"
Baja California Sur,La Paz,Baja California Sur,BSIST000253,Consultorio de Atención Familiar,Las Pocitas,Primer Nivel,Subrogada,24.3942,-111.1054,Calle,Pricipal,S/N,Colonia,Centro,23150,"Calle Pricipal S/N, Colonia Centro, La Paz, Baja California Sur, CP. 23150",CAF Las Pocitas
Baja California Sur,Los Cabos,Baja California Sur,BSIST000101,Clinica Hospital,San José del Cabo,Segundo Nivel,Propia,23.0688,-109.709,Calle,"Carmen Presichi Y Retorno Tifon, ",S/N,Colonia,Rosarito,23407,"Calle Carmen Presichi Y Retorno Tifon,  S/N, Colonia Rosarito, Los Cabos, Baja California Sur, CP. 23407",CH San José del Cabo
Baja California Sur,La Paz,Baja California Sur,BSIST000321,Clínica de Medicina Familiar,La Paz,Primer Nivel,Propia,24.136,-110.3248,Calle,Jose María Morelos,S/N,Colonia,Las Arboledas,23020,"Calle Jose María Morelos S/N, Colonia Las Arboledas, La Paz, Baja California Sur, CP. 23020",CMF La Paz
Baja California Sur,Los Cabos,Baja California Sur,BSIST000352,Clinica Hospital,Cabo San Lucas,Segundo Nivel,Propia,22.9109,-109.9711,Avenida,Portales,S/N,Fraccionamiento,Los Portales,23473,"Avenida Portales S/N, Fraccionamiento Los Portales, Los Cabos, Baja California Sur, CP. 23473",CH Cabo San Lucas
Campeche,Campeche,Campeche,CCIST000021,Clinica Hospital,"Dr. Patricio Trueba Regil, Camp.",Segundo Nivel,Propia,19.8262,-90.5639,Calle,7,S/N,Colonia,Miramar,24030,"Calle 7 S/N, Colonia Miramar, Campeche, Campeche, CP. 24030","CH Dr. Patricio Trueba Regil, Camp."
Campeche,Calkiní,Campeche,CCIST000016,Unidad de Medicina Familiar,Calkiní,Primer Nivel,Propia,20.3746,-90.0604,Calle, Violeta ,S/N,Colonia,San Luis Obispo,24900,"Calle  Violeta  S/N, Colonia San Luis Obispo, Calkiní, Campeche, CP. 24900",UMF Calkiní
Campeche,Candelaria,Campeche,CCIST000086,Consultorio de Atención Familiar,Candelaria,Primer Nivel,Subrogada,18.1969,-91.0447,Calle,29,S/N,Colonia,San Martin Ii,24330,"Calle 29 S/N, Colonia San Martin Ii, Candelaria, Campeche, CP. 24330",CAF Candelaria
Campeche,Champotón,Campeche,CCIST000045,Unidad de Medicina Familiar,Champotón,Primer Nivel,Propia,19.342,-90.7327,Calle,Capitania de Puerto,S/N,Colonia,Carlos Sensores Pérez,24400,"Calle Capitania de Puerto S/N, Colonia Carlos Sensores Pérez, Champotón, Campeche, CP. 24400",UMF Champotón
Campeche,Escárcega,Campeche,CCIST000074,Unidad de Medicina Familiar,Escárcega,Primer Nivel,Propia,18.6037,-90.7291,Calle,28,S/N,Colonia,Centro,24350,"Calle 28 S/N, Colonia Centro, Escárcega, Campeche, CP. 24350",UMF Escárcega
Campeche,Hecelchakán,Campeche,CCIST000050,Unidad de Medicina Familiar,Hecelchakán,Primer Nivel,Propia,20.1717,-90.1402,Calle,29,S/N,Barrio,San Francisco,24800,"Calle 29 S/N, Barrio San Francisco, Hecelchakán, Campeche, CP. 24800",UMF Hecelchakán
Campeche,Hopelchén,Campeche,CCIST000062,Unidad de Medicina Familiar,Hopelchén,Primer Nivel,Propia,19.7454,-89.8476,Calle,261,S/N,Colonia,Centro Frente,24600,"Calle 261 S/N, Colonia Centro Frente, Hopelchén, Campeche, CP. 24600",UMF Hopelchén
Campeche,Seybaplaya,Campeche,CCIST000091,Consultorio de Atención Familiar,Seybaplaya,Primer Nivel,Subrogada,19.6319,-90.6836,Calle,14,S/N,Colonia,Cristo Rey,24460,"Calle 14 S/N, Colonia Cristo Rey, Seybaplaya, Campeche, CP. 24460",CAF Seybaplaya
Campeche,Tenabo,Campeche,CCIST000115,Consultorio de Atención Familiar,Tenabo,Primer Nivel,Subrogada,20.047,-90.2292,Avenida,Jacinto Canek,S/N,Localidad,Tenabo,24700,"Avenida Jacinto Canek S/N, Localidad Tenabo, Tenabo, Campeche, CP. 24700",CAF Tenabo
Campeche,Carmen,Campeche,CCIST000033,Clinica Hospital,Cd. del Carmen,Segundo Nivel,Propia,18.647,-91.8218,Privada,del ISSSTE,S/N,Colonia,Petrolera,24180,"Privada del ISSSTE S/N, Colonia Petrolera, Carmen, Campeche, CP. 24180",CH Cd. del Carmen
Campeche,Palizada,Campeche,CCIST000103,Consultorio de Atención Familiar,Palizada,Primer Nivel,Subrogada,18.256,-92.0997,Calle, Ignacio Ramírez,S/N,Colonia,La Esperanza,24200,"Calle  Ignacio Ramírez S/N, Colonia La Esperanza, Palizada, Campeche, CP. 24200",CAF Palizada
Coahuila,Monclova,Coahuila,CLIST000065,Clinica Hospital,Monclova,Segundo Nivel,Propia,26.9286,-101.4212,Calle,Roble Y Olivo,S/N,Colonia,FOVISSSTE,25734,"Calle Roble Y Olivo S/N, Colonia FOVISSSTE, Monclova, Coahuila, CP. 25734",CH Monclova
Coahuila,Castaños,Coahuila,CLIST000210,Consultorio de Atención Familiar,Castaños,Primer Nivel,Convenio,26.7863,-101.4278,Calle,General Zuazua,S/N,Colonia,Independencia,25870,"Calle General Zuazua S/N, Colonia Independencia, Castaños, Coahuila, CP. 25870",CAF Castaños
Coahuila,Cuatro Ciénegas,Coahuila,CLIST000036,Unidad de Medicina Familiar,Cuatrociénegas de Carranza,Primer Nivel,Propia,26.9846,-102.0695,Calle,Allende y Corona,S/N,Colonia,Centro,27640,"Calle Allende y Corona S/N, Colonia Centro, Cuatro Ciénegas, Coahuila, CP. 27640",UMF Cuatrociénegas de Carranza
Coahuila,Sierra Mojada,Coahuila,CLIST000321,Consultorio de Atención Familiar,La Esmeralda,Primer Nivel,Convenio,27.2883,-103.662,Calle,Hidalgo,S/N,Colonia,Centro,27610,"Calle Hidalgo S/N, Colonia Centro, Sierra Mojada, Coahuila, CP. 27610",CAF La Esmeralda
Coahuila,Ocampo,Coahuila,CLIST000251,Consultorio de Atención Familiar,Ocampo,Primer Nivel,Convenio,27.3126,-102.3967,Calle,Zaragoza,S/N,Colonia,Centro,27500,"Calle Zaragoza S/N, Colonia Centro, Ocampo, Coahuila, CP. 27500",CAF Ocampo
Coahuila,San Buenaventura,Coahuila,CLIST000304,Consultorio de Atención Familiar,San Buenaventura,Primer Nivel,Rentada,27.0609,-101.5386,Calle,Oscar Flores Tapia,S/N,Fraccionamiento,San Andres,25504,"Calle Oscar Flores Tapia S/N, Fraccionamiento San Andres, San Buenaventura, Coahuila, CP. 25504",CAF San Buenaventura
Coahuila,Piedras Negras,Coahuila,CLIST000094,Clinica Hospital,Piedras Negras,Segundo Nivel,Propia,28.6861,-100.5438,Avenida,Nava-Piedras Negras Y Mazatlán,S/N,Colonia,ISSSTE,26070,"Avenida Nava-Piedras Negras Y Mazatlán S/N, Colonia ISSSTE, Piedras Negras, Coahuila, CP. 26070",CH Piedras Negras
Coahuila,Allende,Coahuila,CLIST000024,Unidad de Medicina Familiar,Cd. Allende,Primer Nivel,Destino de Hecho,28.3397,-100.8458,Avenida,Independencia,S/N,Colonia,Centro,26230,"Avenida Independencia S/N, Colonia Centro, Allende, Coahuila, CP. 26230",UMF Cd. Allende
Coahuila,Zaragoza,Coahuila,CLIST000135,Unidad de Medicina Familiar,Zaragoza,Primer Nivel,En Proceso de Regularización,28.4917,-100.9201,Calle,Hermenegildo Galeana,S/N,Colonia,Centro,26450,"Calle Hermenegildo Galeana S/N, Colonia Centro, Zaragoza, Coahuila, CP. 26450",UMF Zaragoza
Coahuila,Acuña,Coahuila,CLIST000012,Clínica de Medicina Familiar,Cd. Acuña,Primer Nivel,Propia,29.3112,-100.9302,Calle,Díaz Guerra,S/N,Colonia,Centro,26260,"Calle Díaz Guerra S/N, Colonia Centro, Acuña, Coahuila, CP. 26260",CMF Cd. Acuña
Coahuila,San Juan de Sabinas,Coahuila,CLIST000193,Clinica Hospital,"Dr. Francisco Z Cruz, Nueva Rosita",Segundo Nivel,Propia,27.9298,-101.2124,Calle,20 de Noviembre,S/N,Colonia,Zaragoza,26850,"Calle 20 de Noviembre S/N, Colonia Zaragoza, San Juan de Sabinas, Coahuila, CP. 26850","CH Dr. Francisco Z Cruz, Nueva Rosita"
Coahuila,Múzquiz,Coahuila,CLIST000070,Unidad de Medicina Familiar,Cd. Melchor Muzquiz,Primer Nivel,Propia,27.8783,-101.5276,Calle,Heroico Colegio Militar,S/N,Barrio,La Ford,26344,"Calle Heroico Colegio Militar S/N, Barrio La Ford, Múzquiz, Coahuila, CP. 26344",UMF Cd. Melchor Muzquiz
Coahuila,Sabinas,Coahuila,CLIST000181,Clinica Hospital,"Dra. Esperanza Flores Alvarado, Cd. Sabinas",Segundo Nivel,Propia,27.8564,-101.1228,Calle,Ignacio Manuel Altamirano,S/N,Colonia,Profesor Federico Berrueto Ramon,26759,"Calle Ignacio Manuel Altamirano S/N, Colonia Profesor Federico Berrueto Ramon, Sabinas, Coahuila, CP. 26759","CH Dra. Esperanza Flores Alvarado, Cd. Sabinas"
Coahuila,San Pedro,Coahuila,CLIST000111,Clinica Hospital,San Pedro de las Colonias,Segundo Nivel,Propia,25.7536,-102.9961,Calle,Granados Y Nogal,S/N,Fraccionamiento,La Quinta,27847,"Calle Granados Y Nogal S/N, Fraccionamiento La Quinta, San Pedro, Coahuila, CP. 27847",CH San Pedro de las Colonias
Coahuila,Francisco I. Madero,Coahuila,CLIST000041,Unidad de Medicina Familiar,Francisco I. Madero,Primer Nivel,Propia,25.7688,-103.2774,Avenida,Adolfo López Mateos,S/N,Colonia,Nuevo Linares,27900,"Avenida Adolfo López Mateos S/N, Colonia Nuevo Linares, Francisco I. Madero, Coahuila, CP. 27900",UMF Francisco I. Madero
Coahuila,Torreón,Coahuila,CLIST000140,Clínica de Medicina Familiar con Especialidades y Quirófano,Torreón,Segundo Nivel,Propia,25.5268,-103.4016,Calle,Mar,S/N,Colonia,Torreon Residencial,27268,"Calle Mar S/N, Colonia Torreon Residencial, Torreón, Coahuila, CP. 27268",CMFEQ Torreón
Coahuila,Matamoros,Coahuila,CLIST000053,Unidad de Medicina Familiar,Matamoros,Primer Nivel,En Proceso de Regularización,25.5285,-103.234,Calle,Guillermo Prieto,S/N,Colonia,Centro,27440,"Calle Guillermo Prieto S/N, Colonia Centro, Matamoros, Coahuila, CP. 27440",UMF Matamoros
Coahuila,Saltillo,Coahuila,CLIST000333,Hospital General,Saltillo,Segundo Nivel,Propia,25.4101,-100.9593,Boulevard,Carlos Abedrop,S/N,Colonia,Centro Metropolitano,25022,"Boulevard Carlos Abedrop S/N, Colonia Centro Metropolitano, Saltillo, Coahuila, CP. 25022",HG Saltillo
Coahuila,General Cepeda,Coahuila,CLIST000222,Consultorio de Atención Familiar,General Cepeda,Primer Nivel,Convenio,25.3771,-101.4742,Calle,Guadalupe Victoria,S/N,Colonia,Centro,25950,"Calle Guadalupe Victoria S/N, Colonia Centro, General Cepeda, Coahuila, CP. 25950",CAF General Cepeda
Coahuila,Saltillo,Coahuila,CLIST000275,Consultorio de Atención Familiar,UH. FOVISSSTE Chapultepec,Primer Nivel,En Proceso de Regularización,25.3993,-100.9972,Calle,Alfonso Reyes,S/N,Fraccionamiento,Chapultepec,25050,"Calle Alfonso Reyes S/N, Fraccionamiento Chapultepec, Saltillo, Coahuila, CP. 25050",CAF UH. FOVISSSTE Chapultepec
Coahuila,Saltillo,Coahuila,CLIST000292,Consultorio de Atención Familiar,UHF. Lomas del Bosque,Primer Nivel,En Proceso de Regularización,25.4222,-100.9338,Calle,Alamos,S/N,Colonia,Lomas Del Bosque,25010,"Calle Alamos S/N, Colonia Lomas Del Bosque, Saltillo, Coahuila, CP. 25010",CAF UHF. Lomas del Bosque
Coahuila,Ramos Arizpe,Coahuila,CLIST000263,Consultorio de Atención Familiar,Ramos Arizpe,Primer Nivel,Convenio,25.5398,-100.952,Calle,General Charles,S/N,Colonia,Centro,25900,"Calle General Charles S/N, Colonia Centro, Ramos Arizpe, Coahuila, CP. 25900",CAF Ramos Arizpe
Coahuila,Parras,Coahuila,CLIST000082,Unidad de Medicina Familiar,Parras de la Fuente,Primer Nivel,Propia,25.444,-102.1747,Boulevard,Oscar Flores Tapia,S/N,Fraccionamiento,Estrella,27980,"Boulevard Oscar Flores Tapia S/N, Fraccionamiento Estrella, Parras, Coahuila, CP. 27980",UMF Parras de la Fuente
Coahuila,Saltillo,Coahuila,CLIST000106,Clínica de Medicina Familiar,Saltillo,Primer Nivel,Propia,25.4302,-101.0117,Calle,Francisco Murguia,S/N,Colonia,Centro,25000,"Calle Francisco Murguia S/N, Colonia Centro, Saltillo, Coahuila, CP. 25000",CMF Saltillo
Colima,Colima,Colima,CMIST000010,Clinica Hospital,"Dr. Miguel Trejo Ochoa, Colima",Segundo Nivel,Propia,19.2511,-103.7137,Calle,Ignacio Sandoval Esq. Con Antonio Caso,S/N,Colonia,Lomas De Circunvalación,28010,"Calle Ignacio Sandoval Esq. Con Antonio Caso S/N, Colonia Lomas De Circunvalación, Colima, Colima, CP. 28010","CH Dr. Miguel Trejo Ochoa, Colima"
Colima,Armería,Colima,CMIST000046,Consultorio de Atención Familiar,Armería,Primer Nivel,Convenio,18.9386,-103.9647,Calle,Jalisco,S/N,Colonia,Centro,28300,"Calle Jalisco S/N, Colonia Centro, Armería, Colima, CP. 28300",CAF Armería
Colima,Minatitlán,Colima,CMIST000051,Consultorio de Atención Familiar,Minatitlán,Primer Nivel,Convenio,19.3845,-104.0496,Calle,Corregidora,S/N,Colonia,Centro,28750,"Calle Corregidora S/N, Colonia Centro, Minatitlán, Colima, CP. 28750",CAF Minatitlán
Colima,Tecomán,Colima,CMIST000034,Unidad de Medicina Familiar,Tecomán,Primer Nivel,Propia,18.909,-103.8606,Calle,Antonio Barbosa Held Esq. Juan José Sevilla,S/N,Colonia,Estatuto Jurídico,28160,"Calle Antonio Barbosa Held Esq. Juan José Sevilla S/N, Colonia Estatuto Jurídico, Tecomán, Colima, CP. 28160",UMF Tecomán
Colima,Manzanillo,Colima,CMIST000022,Clinica Hospital,Manzanillo,Segundo Nivel,Propia,19.0892,-104.2947,Avenida,Parotas Esq. Col Rosa Morada,S/N,Colonia,Valle De Las Garzas,28219,"Avenida Parotas Esq. Col Rosa Morada S/N, Colonia Valle De Las Garzas, Manzanillo, Colima, CP. 28219",CH Manzanillo
Chiapas,Tuxtla Gutiérrez,Chiapas,CSIST000251,Hospital General,"Dr. Belisario Domínguez, Tuxtla Gutiérrez.",Segundo Nivel,Propia,16.7487,-93.0745,Calle,Libramiento Norte Oriente 49-A,S/N,Colonia,ISSSTE,29060,"Calle Libramiento Norte Oriente 49-A S/N, Colonia ISSSTE, Tuxtla Gutiérrez, Chiapas, CP. 29060","HG Dr. Belisario Domínguez, Tuxtla Gutiérrez."
Chiapas,Tapachula,Chiapas,CSIST000210,Clinica Hospital,"Dr. Roberto Nettel F., Tapachula",Segundo Nivel,Propia,14.8994,-92.2493,Avenida,Tuxtepec Y Oaxaca ,S/N,Fraccionamiento,Francisco Villa,30740,"Avenida Tuxtepec Y Oaxaca  S/N, Fraccionamiento Francisco Villa, Tapachula, Chiapas, CP. 30740","CH Dr. Roberto Nettel F., Tapachula"
Chiapas,Cacahoatán,Chiapas,CSIST000041,Unidad de Medicina Familiar,Cacahoatán,Primer Nivel,Propia,14.9958,-92.162,Calle,Novena Norte Y Prolongación Entre 17 Y 19 Oriente,S/N,Colonia,Belisario Dominguez,30890,"Calle Novena Norte Y Prolongación Entre 17 Y 19 Oriente S/N, Colonia Belisario Dominguez, Cacahoatán, Chiapas, CP. 30890",UMF Cacahoatán
Chiapas,Suchiate,Chiapas,CSIST000205,Unidad de Medicina Familiar,Cd. Hidalgo,Primer Nivel,Propia,14.678,-92.1494,Calle,Segunda Oriente,S/N,Colonia,Centro,30740,"Calle Segunda Oriente S/N, Colonia Centro, Suchiate, Chiapas, CP. 30740",UMF Cd. Hidalgo
Chiapas,Huixtla,Chiapas,CSIST000106,Unidad de Medicina Familiar,Huixtla,Primer Nivel,Propia,15.1339,-92.4607,Avenida,Miguel Alemán Sur,10,Colonia,Revolucionaria ,36640,"Avenida Miguel Alemán Sur 10, Colonia Revolucionaria , Huixtla, Chiapas, CP. 36640",UMF Huixtla
Chiapas,Mapastepec,Chiapas,CSIST000123,Unidad de Medicina Familiar,Mapastepec,Primer Nivel,Propia,15.4505,-92.8899,Calle,19 Poniente Segunda Avenida Norte Esquina,1012,Colonia,Malucal ,30560,"Calle 19 Poniente Segunda Avenida Norte Esquina 1012, Colonia Malucal , Mapastepec, Chiapas, CP. 30560",UMF Mapastepec
Chiapas,Motozintla,Chiapas,CSIST000135,Unidad de Medicina Familiar,Motozintla de Mendoza,Primer Nivel,Propia,15.3691,-92.2423,Calle,Octava Poniente,225,Colonia,Emiliano Zapata ,30900,"Calle Octava Poniente 225, Colonia Emiliano Zapata , Motozintla, Chiapas, CP. 30900",UMF Motozintla de Mendoza
Chiapas,Acapetahua,Chiapas,CSIST000012,Unidad de Medicina Familiar,Acapetahua,Primer Nivel,Propia,15.2795,-92.6906,Calle,Primera Norte Oriente,S/N,Barrio,Centro,30580,"Calle Primera Norte Oriente S/N, Barrio Centro, Acapetahua, Chiapas, CP. 30580",UMF Acapetahua
Chiapas,Pijijiapan,Chiapas,CSIST000403,Consultorio de Atención Familiar,Pijijiapan,Primer Nivel,Subrogada,15.6926,-93.2105,Calle,Miguel Alemán Sur,S/N,Colonia,Centro,30540,"Calle Miguel Alemán Sur S/N, Colonia Centro, Pijijiapan, Chiapas, CP. 30540",CAF Pijijiapan
Chiapas,San Cristóbal de las Casas,Chiapas,CSIST000193,Clinica Hospital,San Cristóbal de las Casas,Segundo Nivel,Propia,16.7256,-92.6466,Calle,José María Morelos,58,Barrio,Santa Martha,29277,"Calle José María Morelos 58, Barrio Santa Martha, San Cristóbal de las Casas, Chiapas, CP. 29277",CH San Cristóbal de las Casas
Chiapas,Ocosingo,Chiapas,CSIST000140,Unidad de Medicina Familiar,Ocosingo,Primer Nivel,Propia,16.9112,-92.0914,Calle,4Ta Oriente Norte ,2,Barrio,Santa Lucía,29950,"Calle 4Ta Oriente Norte  2, Barrio Santa Lucía, Ocosingo, Chiapas, CP. 29950",UMF Ocosingo
Chiapas,Yajalón,Chiapas,CSIST000275,Unidad de Medicina Familiar,Yajalón,Primer Nivel,Propia,17.1723,-92.3338,Calle,Primera Oriente Sur,141,Colonia,Centro,29930,"Calle Primera Oriente Sur 141, Colonia Centro, Yajalón, Chiapas, CP. 29930",UMF Yajalón
Chiapas,Salto de Agua,Chiapas,CSIST000181,Unidad de Medicina Familiar,Salto de Agua,Primer Nivel,Propia,17.5544,-92.3398,Calle,Vicente Guerrero ,S/N,Barrio,Centro,29900,"Calle Vicente Guerrero  S/N, Barrio Centro, Salto de Agua, Chiapas, CP. 29900",UMF Salto de Agua
Chiapas,Altamirano,Chiapas,CSIST000350,Consultorio de Atención Familiar,Altamirano,Primer Nivel,Subrogada,16.7285,-92.0408,Calle,20 de Noviembre,S/N,Barrio,Del Camino Altamirano,29950,"Calle 20 de Noviembre S/N, Barrio Del Camino Altamirano, Altamirano, Chiapas, CP. 29950",CAF Altamirano
Chiapas,Comitán de Domínguez,Chiapas,CSIST000065,Clinica Hospital,Comitán de Domínguez,Segundo Nivel,Propia,16.2312,-92.1363,Calle,de Abasolo,S/N,Colonia,Miguel Alemán,30090,"Calle de Abasolo S/N, Colonia Miguel Alemán, Comitán de Domínguez, Chiapas, CP. 30090",CH Comitán de Domínguez
Chiapas,Frontera Comalapa,Chiapas,CSIST000094,Unidad de Medicina Familiar,Frontera Comalapa,Primer Nivel,Propia,15.6626,-92.1427,Avenida,Tercera Poniente Norte,238,Colonia,Centro,30140,"Avenida Tercera Poniente Norte 238, Colonia Centro, Frontera Comalapa, Chiapas, CP. 30140",UMF Frontera Comalapa
Chiapas,Las Margaritas,Chiapas,CSIST000391,Unidad de Medicina Familiar,Las Margaritas,Primer Nivel,Propia,16.3116,-91.981,Calle,Quinta Sur Poniente,S/N,Colonia,Centro,30187,"Calle Quinta Sur Poniente S/N, Colonia Centro, Las Margaritas, Chiapas, CP. 30187",UMF Las Margaritas
Chiapas,Tuxtla Gutiérrez,Chiapas,CSIST000246,Clínica de Medicina Familiar,Tuxtla Gutiérrez,Primer Nivel,Propia,16.7498,-93.1304,Calle,Perif. Sur Pte,1515-B,Colonia,Penipak,29060,"Calle Perif. Sur Pte 1515-B, Colonia Penipak, Tuxtla Gutiérrez, Chiapas, CP. 29060",CMF Tuxtla Gutiérrez
Chiapas,Arriaga,Chiapas,CSIST000024,Unidad de Medicina Familiar,Arriaga,Primer Nivel,En Proceso de Regularización,16.2415,-93.8876,Calle, Avenida  24 Oriente,S/N,Colonia,Nueva Esperanza,30450,"Calle  Avenida  24 Oriente S/N, Colonia Nueva Esperanza, Arriaga, Chiapas, CP. 30450",UMF Arriaga
Chiapas,Bochil,Chiapas,CSIST000036,Unidad de Medicina Familiar,Bochil,Primer Nivel,Propia,16.9957,-92.887,Calle,Tercera Oriente Norte,S/N,Colonia,Centro,29777,"Calle Tercera Oriente Norte S/N, Colonia Centro, Bochil, Chiapas, CP. 29777",UMF Bochil
Chiapas,Cintalapa de Figueroa,Chiapas,CSIST000053,Unidad de Medicina Familiar,Cintalapa de Figueroa,Primer Nivel,Propia,16.6946,-93.7148,Avenida,Tercera Sur,S/N,Colonia,Santa Cecilia ,30400,"Avenida Tercera Sur S/N, Colonia Santa Cecilia , Cintalapa de Figueroa, Chiapas, CP. 30400",UMF Cintalapa de Figueroa
Chiapas,Copainalá,Chiapas,CSIST000070,Unidad de Medicina Familiar,Copainalá,Primer Nivel,Propia,17.0945,-93.2136,Calle,"Tecpatan,  ",S/N,Colonia,Centro,29620,"Calle Tecpatan,   S/N, Colonia Centro, Copainalá, Chiapas, CP. 29620",UMF Copainalá
Chiapas,Chiapa de Corzo,Chiapas,CSIST000082,Unidad de Medicina Familiar,Chiapa de Corzo,Primer Nivel,Propia,16.7003,-93.0095,Calle,12 de Agosto ,2,Barrio,Santa Elena,29160,"Calle 12 de Agosto  2, Barrio Santa Elena, Chiapa de Corzo, Chiapas, CP. 29160",UMF Chiapa de Corzo
Chiapas,Jiquipilas,Chiapas,CSIST000111,Unidad de Medicina Familiar,Jiquipilas,Primer Nivel,Propia,16.6616,-93.6426,Avenida,Central,S/N,Barrio,San Sebastián,30430,"Avenida Central S/N, Barrio San Sebastián, Jiquipilas, Chiapas, CP. 30430",UMF Jiquipilas
Chiapas,Ocozocoautla de Espinosa,Chiapas,CSIST000152,Unidad de Medicina Familiar,Ocozocoautla de Espinosa,Primer Nivel,Propia,16.7669,-93.3799,Avenida,Septima Norte-Poniente,S/N,Colonia,Cruz Blanca,29140,"Avenida Septima Norte-Poniente S/N, Colonia Cruz Blanca, Ocozocoautla de Espinosa, Chiapas, CP. 29140",UMF Ocozocoautla de Espinosa
Chiapas,Pichucalco,Chiapas,CSIST000176,Unidad de Medicina Familiar,Pichucalco,Primer Nivel,Propia,17.5138,-93.1185,Calle,Ponciano Rojas,S/N,Colonia,Centro,29520,"Calle Ponciano Rojas S/N, Colonia Centro, Pichucalco, Chiapas, CP. 29520",UMF Pichucalco
Chiapas,Tapilula,Chiapas,CSIST000222,Unidad de Medicina Familiar,Tapilula,Primer Nivel,Propia,17.2471,-93.0163,Calle,Central Sur ,S/N,Barrio,Nueva Linda Vista,29730,"Calle Central Sur  S/N, Barrio Nueva Linda Vista, Tapilula, Chiapas, CP. 29730",UMF Tapilula
Chiapas,Tonalá,Chiapas,CSIST000234,Unidad de Medicina Familiar,Tonalá,Primer Nivel,Propia,16.0814,-93.7661,Carretera,A Tonalá-Paredón 12,S/N,Barrio,Carretera,30500,"Carretera A Tonalá-Paredón 12 S/N, Barrio Carretera, Tonalá, Chiapas, CP. 30500",UMF Tonalá
Chiapas,Venustiano Carranza,Chiapas,CSIST000304,Consultorio de Atención Familiar,Venustiano Carranza,Primer Nivel,Subrogada,16.3393,-92.563,Calle,Primera Norte,21 P/A,Colonia,Centro,30500,"Calle Primera Norte 21 P/A, Colonia Centro, Venustiano Carranza, Chiapas, CP. 30500",CAF Venustiano Carranza
Chiapas,Villaflores,Chiapas,CSIST000263,Unidad de Medicina Familiar,Villa Flores,Primer Nivel,Propia,16.2425,-93.2722,Calle,"Central,",S/N,Colonia,Centro,30470,"Calle Central, S/N, Colonia Centro, Villaflores, Chiapas, CP. 30470",UMF Villa Flores
Chiapas,Tuxtla Gutiérrez,Chiapas,CSIST000432,Consultorio Médico en Centro de Trabajo,Palacio Federal,Primer Nivel,Convenio,16.7538,-93.1151,Calle,Primera Norte Y Primera Oriente,S/N,Colonia,Centro,29000,"Calle Primera Norte Y Primera Oriente S/N, Colonia Centro, Tuxtla Gutiérrez, Chiapas, CP. 29000",CMCT Palacio Federal
Chiapas,Tuxtla Gutiérrez,Chiapas,CSIST000444,Consultorio Médico en Centro de Trabajo,SAGARPA,Primer Nivel,Convenio,16.762,-93.1482,Carretera,Chicoasen,S/N,Colonia,Inhabilitado,29000,"Carretera Chicoasen S/N, Colonia Inhabilitado, Tuxtla Gutiérrez, Chiapas, CP. 29000",CMCT SAGARPA
Chiapas,Tuxtla Gutiérrez,Chiapas,CSIST000456,Consultorio Médico en Centro de Trabajo,Sedesol,Primer Nivel,Convenio,16.7543,-93.12,Calle,Central Oriente,11228,Colonia,Centro,29047,"Calle Central Oriente 11228, Colonia Centro, Tuxtla Gutiérrez, Chiapas, CP. 29047",CMCT Sedesol
Chiapas,Tuxtla Gutiérrez,Chiapas,CSIST000461,Consultorio Médico en Centro de Trabajo,SECH,Primer Nivel,Convenio,16.7391,-93.0931,Calle,Central Oriente,11228,Colonia,Centro,29047,"Calle Central Oriente 11228, Colonia Centro, Tuxtla Gutiérrez, Chiapas, CP. 29047",CMCT SECH
Chiapas,Reforma,Chiapas,CSIST000321,Consultorio de Atención Familiar,Reforma,Primer Nivel,Subrogada,17.8527,-93.1581,Calle,de La Reforma,S/N,Colonia,Centro,29500,"Calle de La Reforma S/N, Colonia Centro, Reforma, Chiapas, CP. 29500",CAF Reforma
Chiapas,Tuxtla Gutiérrez,Chiapas,CSIST000473,Consultorio de Atención Familiar,UH. FOVISSSTE Paraíso,Primer Nivel,Convenio,16.7714,-93.1203,Calle,Andador  Vía Lactea,S/N,Colonia,Unidad Habitacional FOVISSSTE  Paraíso II,29039,"Calle Andador  Vía Lactea S/N, Colonia Unidad Habitacional FOVISSSTE  Paraíso II, Tuxtla Gutiérrez, Chiapas, CP. 29039",CAF UH. FOVISSSTE Paraíso
Chiapas,Simojovel,Chiapas,CSIST000420,Consultorio de Atención Familiar,Simojovel,Primer Nivel,Convenio,17.1428,-92.7147,Calle,Emiliano Zapata,S/N,Barrio,La Represa,29820,"Calle Emiliano Zapata S/N, Barrio La Represa, Simojovel, Chiapas, CP. 29820",CAF Simojovel
Chiapas,Berriozábal,Chiapas,CSIST000362,Consultorio de Atención Familiar,Berriozábal,Primer Nivel,Convenio,16.793,-93.277,Calle,Central Oriente,S/N,Colonia,Centro,29130,"Calle Central Oriente S/N, Colonia Centro, Berriozábal, Chiapas, CP. 29130",CAF Berriozábal
Chiapas,Villa Corzo,Chiapas,CSIST000490,Consultorio de Atención Familiar,Villa Corzo,Primer Nivel,Convenio,16.1889,-93.2632,Calle,Lienzo Charro,S/N,Colonia,Barrio,30520,"Calle Lienzo Charro S/N, Colonia Barrio, Villa Corzo, Chiapas, CP. 30520",CAF Villa Corzo
Chiapas,Palenque,Chiapas,CSIST000514,Clinica Hospital,Palenque ,Segundo Nivel,Propia,17.5358,-91.9929,Carretera,Palenque- Pakal-Ná,S/N,Colonia,Pakal-Na,29960,"Carretera Palenque- Pakal-Ná S/N, Colonia Pakal-Na, Palenque, Chiapas, CP. 29960",CH Palenque 
Chihuahua,Chihuahua,Chihuahua,CHIST000030,Hospital General,"Presidente Gral. Lázaro Cárdenas, Chihuahua",Segundo Nivel,Propia,28.66,-106.0964,Avenida,Americas ,S/N,Colonia,Angel Trias ,31203,"Avenida Americas  S/N, Colonia Angel Trias , Chihuahua, Chihuahua, CP. 31203","HG Presidente Gral. Lázaro Cárdenas, Chihuahua"
Chihuahua,Dr. Belisario Domínguez,Chihuahua,CHIST000310,Consultorio de Atención Familiar,Dr. Belisario Domínguez,Primer Nivel,Subrogada,28.1552,-106.477,Calle,Puesto Periferico Cerrado ,S/N,Colonia,Belisario Domínguez,33140,"Calle Puesto Periferico Cerrado  S/N, Colonia Belisario Domínguez, Dr. Belisario Domínguez, Chihuahua, CP. 33140",CAF Dr. Belisario Domínguez
Chihuahua,Aldama,Chihuahua,CHIST000182,Consultorio de Atención Familiar,Villa Aldama,Primer Nivel,Convenio,28.8424,-105.912,Calle,11,S/N,Colonia,Centro,32900,"Calle 11 S/N, Colonia Centro, Aldama, Chihuahua, CP. 32900",CAF Villa Aldama
Chihuahua,Ojinaga,Chihuahua,CHIST000153,Unidad de Medicina Familiar,Ojinaga,Primer Nivel,Propia,29.5601,-104.4034,Calle,Internacional,S/N,Fraccionamiento,Progreso,32882,"Calle Internacional S/N, Fraccionamiento Progreso, Ojinaga, Chihuahua, CP. 32882",UMF Ojinaga
Chihuahua,Juárez,Chihuahua,CHIST000112,Hospital General,Cd. Juárez,Segundo Nivel,Propia,31.7429,-106.4484,Calle,Reyes Estrada ,S/N,Colonia,La Plata,32315,"Calle Reyes Estrada  S/N, Colonia La Plata, Juárez, Chihuahua, CP. 32315",HG Cd. Juárez
Chihuahua,Delicias,Chihuahua,CHIST000515,Clinica Hospital,Cd. Delicias,Segundo Nivel,Propia,28.1563,-105.4466,Avenida,Las Moras,S/N,Colonia,Altavista,33066,"Avenida Las Moras S/N, Colonia Altavista, Delicias, Chihuahua, CP. 33066",CH Cd. Delicias
Chihuahua,Hidalgo del Parral,Chihuahua,CHIST000095,Clinica Hospital,Hidalgo del Parral,Segundo Nivel,Propia,26.9222,-105.666,Calle,Francisco Miranda,S/N,Colonia,Centro,33800,"Calle Francisco Miranda S/N, Colonia Centro, Hidalgo del Parral, Chihuahua, CP. 33800",CH Hidalgo del Parral
Chihuahua,Balleza,Chihuahua,CHIST000223,Consultorio de Atención Familiar,Balleza,Primer Nivel,Subrogada,26.9533,-106.349,Calle,Adolfo Ruiz ,S/N,Colonia,Raul Fernandez,33560,"Calle Adolfo Ruiz  S/N, Colonia Raul Fernandez, Balleza, Chihuahua, CP. 33560",CAF Balleza
Chihuahua,Guadalupe y Calvo,Chihuahua,CHIST000334,Consultorio de Atención Familiar,Guadalupe y Calvo,Primer Nivel,Convenio,26.0871,-106.962,Avenida,Presa de las Virgines,S/N,Colonia,Santo Niño,33470,"Avenida Presa de las Virgines S/N, Colonia Santo Niño, Guadalupe y Calvo, Chihuahua, CP. 33470",CAF Guadalupe y Calvo
Chihuahua,Guachochi,Chihuahua,CHIST000066,Unidad de Medicina Familiar,Guachochi,Primer Nivel,Propia,26.8171,-107.0725,Calle,Pascual Orozco,S/N,Colonia,Centro,33180,"Calle Pascual Orozco S/N, Colonia Centro, Guachochi, Chihuahua, CP. 33180",UMF Guachochi
Chihuahua,San Francisco del Oro,Chihuahua,CHIST000450,Consultorio de Atención Familiar,San Francisco del Oro,Primer Nivel,Subrogada,26.8632,-105.851,Calle,Zacatecas,S/N,Colonia,Zacatecas,33500,"Calle Zacatecas S/N, Colonia Zacatecas, San Francisco del Oro, Chihuahua, CP. 33500",CAF San Francisco del Oro
Chihuahua,Santa Bárbara,Chihuahua,CHIST000462,Consultorio de Atención Familiar,Santa Bárbara,Primer Nivel,Subrogada,26.8001,-105.817,Calle,Ricardo Flores Magón,S/N,Colonia,Centro,33580,"Calle Ricardo Flores Magón S/N, Colonia Centro, Santa Bárbara, Chihuahua, CP. 33580",CAF Santa Bárbara
Chihuahua,Allende,Chihuahua,CHIST000194,Consultorio de Atención Familiar,Valle de Allende,Primer Nivel,Subrogada,26.9313,-105.395,Calle,5 de Mayo,S/N,Colonia,Centro,33920,"Calle 5 de Mayo S/N, Colonia Centro, Allende, Chihuahua, CP. 33920",CAF Valle de Allende
Chihuahua,Valle de Zaragoza,Chihuahua,CHIST000491,Consultorio de Atención Familiar,Valle de Zaragoza,Primer Nivel,Subrogada,27.4498,-105.8087,Calle,Nicolás Bravo,S/N,Colonia,Centro,33650,"Calle Nicolás Bravo S/N, Colonia Centro, Valle de Zaragoza, Chihuahua, CP. 33650",CAF Valle de Zaragoza
Chihuahua,Matamoros,Chihuahua,CHIST000136,Unidad de Medicina Familiar,Villa Matamoros,Primer Nivel,Propia,26.7617,-105.587,Calle,Guillermo Prieto Luján,S/N,Colonia,Centro,27440,"Calle Guillermo Prieto Luján S/N, Colonia Centro, Matamoros, Chihuahua, CP. 27440",UMF Villa Matamoros
Chihuahua,Jiménez,Chihuahua,CHIST000100,Unidad de Medicina Familiar,Cd. Jiménez,Primer Nivel,Propia,27.1348,-104.9126,Calle,Sor Juana Ines de la Cruz,S/N,Colonia,Centro,33983,"Calle Sor Juana Ines de la Cruz S/N, Colonia Centro, Jiménez, Chihuahua, CP. 33983",UMF Cd. Jiménez
Chihuahua,Cuauhtémoc,Chihuahua,CHIST000025,Clinica Hospital,Cd. Cuauhtémoc,Segundo Nivel,Propia,28.4156,-106.8415,Calle,Nogales,S/N,Colonia,Burocratas,31560,"Calle Nogales S/N, Colonia Burocratas, Cuauhtémoc, Chihuahua, CP. 31560",CH Cd. Cuauhtémoc
Chihuahua,Urique,Chihuahua,CHIST000474,Consultorio de Atención Familiar,Bahuichivo,Primer Nivel,Subrogada,27.4103,-108.067,Calle,Domicilio Conocido,S/N,Colonia,Centro,31000,"Calle Domicilio Conocido S/N, Colonia Centro, Urique, Chihuahua, CP. 31000",CAF Bahuichivo
Chihuahua,Namiquipa,Chihuahua,CHIST000404,Consultorio de Atención Familiar,El Terrero,Primer Nivel,Subrogada,29.1839,-107.3891,Calle,Morelos 107 00 Col. El Terrero,S/N,Colonia,El Terrero,31960,"Calle Morelos 107 00 Col. El Terrero S/N, Colonia El Terrero, Namiquipa, Chihuahua, CP. 31960",CAF El Terrero
Chihuahua,Chínipas,Chihuahua,CHIST000305,Consultorio de Atención Familiar,Chínipas,Primer Nivel,Subrogada,27.3937,-108.5361,Calle,Morelos,S/N,Colonia,Centro,33364,"Calle Morelos S/N, Colonia Centro, Chínipas, Chihuahua, CP. 33364",CAF Chínipas
Chihuahua,Bocoyna,Chihuahua,CHIST000240,Consultorio de Atención Familiar,San Juanito,Primer Nivel,Rentada,27.9689,-107.602,Calle,Irigoyen,S/N,Colonia,Centro,33210,"Calle Irigoyen S/N, Colonia Centro, Bocoyna, Chihuahua, CP. 33210",CAF San Juanito
Chihuahua,Matachí,Chihuahua,CHIST000392,Consultorio de Atención Familiar,Matachí,Primer Nivel,Subrogada,28.846,-107.757,Calle,Septima,S/N,Colonia,Centro,31990,"Calle Septima S/N, Colonia Centro, Matachí, Chihuahua, CP. 31990",CAF Matachí
Chihuahua,Guerrero,Chihuahua,CHIST000071,Unidad de Medicina Familiar,Adolfo López Mateos (La Junta),Primer Nivel,Propia,28.4716,-107.3278,Calle,Felipe Angeles,S/N,Colonia,Benito Juárez,31690,"Calle Felipe Angeles S/N, Colonia Benito Juárez, Guerrero, Chihuahua, CP. 31690",UMF Adolfo López Mateos (La Junta)
Chihuahua,Guerrero,Chihuahua,CHIST000083,Unidad de Medicina Familiar,Cd. Guerrero,Primer Nivel,Propia,28.5457,-107.4803,Calle,Fco. Javier Mina ,S/N,Colonia,Centro,31680,"Calle Fco. Javier Mina  S/N, Colonia Centro, Guerrero, Chihuahua, CP. 31680",UMF Cd. Guerrero
Chihuahua,Madera,Chihuahua,CHIST000124,Unidad de Medicina Familiar,Madera,Primer Nivel,Propia,29.1927,-108.1502,Calle,23A.,S/N,Barrio,El Estadio ,31940,"Calle 23A. S/N, Barrio El Estadio , Madera, Chihuahua, CP. 31940",UMF Madera
Chihuahua,Guerrero,Chihuahua,CHIST000346,Consultorio de Atención Familiar,Tomochi,Primer Nivel,Subrogada,28.3528,-107.839,Carretera,Puesto Periferico Cerrado ,S/N,Colonia,Centro,31691,"Carretera Puesto Periferico Cerrado  S/N, Colonia Centro, Guerrero, Chihuahua, CP. 31691",CAF Tomochi
Chihuahua,Gómez Farías,Chihuahua,PENDIENTE,Consultorio de Atención Familiar,Gómez Farias,Primer Nivel,Subrogada,29.36,-107.7377,Calle,Socorro Rivera,509,Colonia,Valentín Gómez Farías,31900,"Calle Socorro Rivera 509, Colonia Valentín Gómez Farías, Gómez Farías, Chihuahua, CP. 31900",CAF Gómez Farias
Chihuahua,Namiquipa,Chihuahua,CHIST000416,Consultorio de Atención Familiar,Óscar Soto Maynez,Primer Nivel,Subrogada,29.0347,-107.4709,Calle,12 de Agosto,S/N,Colonia,Centro,31975,"Calle 12 de Agosto S/N, Colonia Centro, Namiquipa, Chihuahua, CP. 31975",CAF Óscar Soto Maynez
Chihuahua,Carichí,Chihuahua,CHIST000276,Consultorio de Atención Familiar,Carichí,Primer Nivel,Subrogada,27.9166,-107.053,Calle,Domicilio Conocido,S/N,Colonia,Centro,33280,"Calle Domicilio Conocido S/N, Colonia Centro, Carichí, Chihuahua, CP. 33280",CAF Carichí
Chihuahua,Bocoyna,Chihuahua,CHIST000235,Consultorio de Atención Familiar,Creel,Primer Nivel,Subrogada,27.7628,-107.6369,Calle,Barrio de Chapultepec,S/N,Colonia,Centro,33200,"Calle Barrio de Chapultepec S/N, Colonia Centro, Bocoyna, Chihuahua, CP. 33200",CAF Creel
Chihuahua,Madera,Chihuahua,CHIST000380,Consultorio de Atención Familiar,El Largo Maderal,Primer Nivel,Subrogada,29.6885,-108.276,Calle,No Hay Medico,S/N,Colonia,Centro,31000,"Calle No Hay Medico S/N, Colonia Centro, Madera, Chihuahua, CP. 31000",CAF El Largo Maderal
Chihuahua,Urique,Chihuahua,CHIST000486,Consultorio de Atención Familiar,San Rafael Urique,Primer Nivel,Subrogada,27.4887,-107.888,Calle,Puesto Periferico Cerrado ,S/N,Colonia,Centro,31000,"Calle Puesto Periferico Cerrado  S/N, Colonia Centro, Urique, Chihuahua, CP. 31000",CAF San Rafael Urique
Chihuahua,Guazapares,Chihuahua,CHIST000520,Consultorio de Atención Familiar,Témoris,Primer Nivel,Subrogada,27.277,-108.2789,Calle,Benito Juárez,S/N,Colonia,Centro,33380,"Calle Benito Juárez S/N, Colonia Centro, Guazapares, Chihuahua, CP. 33380",CAF Témoris
Chihuahua,Juárez,Chihuahua,CHIST000363,Clínica de Medicina Familiar,Cd. Juárez,Primer Nivel,Propia,31.5943,-106.3988,Calle,Yepomera,S/N,Fraccionamiento,Hacienda De Las Torres Universidad,32576,"Calle Yepomera S/N, Fraccionamiento Hacienda De Las Torres Universidad, Juárez, Chihuahua, CP. 32576",CMF Cd. Juárez
Chihuahua,Ascensión,Chihuahua,CHIST000211,Consultorio de Atención Familiar,Ascensión,Primer Nivel,Subrogada,31.0892,-107.9966,Calle,San Luis,S/N,Colonia,Centro,31820,"Calle San Luis S/N, Colonia Centro, Ascensión, Chihuahua, CP. 31820",CAF Ascensión
Chihuahua,Praxedis G. Guerrero,Chihuahua,CHIST000445,Consultorio de Atención Familiar,Praxedis G. Guerrero,Primer Nivel,Subrogada,31.3786,-106.007,Calle,Vicente Guerrero,S/N,Colonia,Centro,31000,"Calle Vicente Guerrero S/N, Colonia Centro, Praxedis G. Guerrero, Chihuahua, CP. 31000",CAF Praxedis G. Guerrero
Chihuahua,Ascensión,Chihuahua,CHIST000206,Consultorio de Atención Familiar,Gral. Rodrigo M. Quevedo (Palomas),Primer Nivel,Subrogada,31.7815,-107.627,Calle,Lerdo,S/N,Colonia,Centro,31830,"Calle Lerdo S/N, Colonia Centro, Ascensión, Chihuahua, CP. 31830",CAF Gral. Rodrigo M. Quevedo (Palomas)
Chihuahua,Nuevo Casas Grandes,Chihuahua,CHIST000141,Unidad de Medicina Familiar,Nuevo Casas Grandes,Primer Nivel,Propia,30.4226,-107.9035,Calle,del Prado,S/N,Colonia,Centro,31700,"Calle del Prado S/N, Colonia Centro, Nuevo Casas Grandes, Chihuahua, CP. 31700",UMF Nuevo Casas Grandes
Chihuahua,Ahumada,Chihuahua,CHIST000170,Consultorio de Atención Familiar,Villa Ahumada,Primer Nivel,Subrogada,30.6173,-106.514,Calle,Miguel Ahumada,S/N,Colonia,Centro,32800,"Calle Miguel Ahumada S/N, Colonia Centro, Ahumada, Chihuahua, CP. 32800",CAF Villa Ahumada
Chihuahua,Buenaventura,Chihuahua,CHIST000264,Consultorio de Atención Familiar,Ricardo Flores Magón,Primer Nivel,Convenio,29.9441,-106.963,Calle,Puesto Periferico Cerrado,S/N,Colonia,Centro,31830,"Calle Puesto Periferico Cerrado S/N, Colonia Centro, Buenaventura, Chihuahua, CP. 31830",CAF Ricardo Flores Magón
Chihuahua,Buenaventura,Chihuahua,CHIST000252,Consultorio de Atención Familiar,Valle de San Buenaventura,Primer Nivel,Subrogada,29.8392,-107.469,Calle,Anahuac,S/N,Colonia,Centro,31890,"Calle Anahuac S/N, Colonia Centro, Buenaventura, Chihuahua, CP. 31890",CAF Valle de San Buenaventura
Chihuahua,Ignacio Zaragoza,Chihuahua,CHIST000351,Consultorio de Atención Familiar,Ignacio Zaragoza,Primer Nivel,Subrogada,29.6541,-107.754,Calle,Barrio Chihuahuita,S/N,Colonia,Prolongación Josefa Ortíz De Domínguez,31920,"Calle Barrio Chihuahuita S/N, Colonia Prolongación Josefa Ortíz De Domínguez, Ignacio Zaragoza, Chihuahua, CP. 31920",CAF Ignacio Zaragoza
Chihuahua,Delicias,Chihuahua,CHIST000054,Clínica de Medicina Familiar,Cd. Delicias,Primer Nivel,Propia,28.1786,-105.4731,Calle,12 Sur,S/N,Fraccionamiento,Los Ángeles,33076,"Calle 12 Sur S/N, Fraccionamiento Los Ángeles, Delicias, Chihuahua, CP. 33076",CMF Cd. Delicias
Chihuahua,Saucillo,Chihuahua,CHIST000165,Unidad de Medicina Familiar,Saucillo,Primer Nivel,Propia,28.035,-105.2931,Calle,13A.,S/N,Colonia,Centro,33620,"Calle 13A. S/N, Colonia Centro, Saucillo, Chihuahua, CP. 33620",UMF Saucillo
Chihuahua,Camargo,Chihuahua,CHIST000013,Unidad de Medicina Familiar,Cd. Camargo,Primer Nivel,Propia,27.6839,-105.1791,Calle,Quinta Gracia,S/N,Colonia,Quinta Gracia,33778,"Calle Quinta Gracia S/N, Colonia Quinta Gracia, Camargo, Chihuahua, CP. 33778",UMF Cd. Camargo
Chihuahua,Chihuahua,Chihuahua,CHIST000293,Clínica de Medicina Familiar,Chihuahua,Primer Nivel,Propia,28.658,-106.0991,Calle,Ahuehuete,S/N,Colonia,Ángel Trias,31203,"Calle Ahuehuete S/N, Colonia Ángel Trias, Chihuahua, Chihuahua, CP. 31203",CMF Chihuahua
Durango,Durango,Durango,DGIST000042,Hospital General,"Dr. Santiago Ramon y Cajal, Dgo.",Segundo Nivel,Propia,24.0294,-104.6818,Calle,Velino M. Preza,S/N,Colonia,Silvestre Dorador,34070,"Calle Velino M. Preza S/N, Colonia Silvestre Dorador, Durango, Durango, CP. 34070","HG Dr. Santiago Ramon y Cajal, Dgo."
Durango,Lerdo,Durango,DGIST000346,Clínica de Medicina Familiar,Cd. Lerdo,Primer Nivel,Propia,25.5553,-103.5091,Calzada,Jose Santos Valdes,S/N,Colonia,Magisterial,35168,"Calzada Jose Santos Valdes S/N, Colonia Magisterial, Lerdo, Durango, CP. 35168",CMF Cd. Lerdo
Durango,Gómez Palacio,Durango,DGIST000054,Clinica Hospital,Gómez Palacio,Segundo Nivel,Propia,25.5546,-103.5085,Boulevard,Miguel Alemán Y J. Agustín Castro,S/N,Colonia,Centro,35050,"Boulevard Miguel Alemán Y J. Agustín Castro S/N, Colonia Centro, Gómez Palacio, Durango, CP. 35050",CH Gómez Palacio
Durango,Cuencamé,Durango,DGIST000025,Unidad de Medicina Familiar,Cuencamé,Primer Nivel,En Proceso de Regularización,24.8675,-103.6963,Calle,Aquiles Serdan,S/N,Colonia,Las Alamedas,35800,"Calle Aquiles Serdan S/N, Colonia Las Alamedas, Cuencamé, Durango, CP. 35800",UMF Cuencamé
Durango,Rodeo,Durango,DGIST000136,Unidad de Medicina Familiar,Rodeo,Primer Nivel,Propia,25.1745,-104.5548,Avenida,Durango,S/N,Colonia,Industrial,35760,"Avenida Durango S/N, Colonia Industrial, Rodeo, Durango, CP. 35760",UMF Rodeo
Durango,Ocampo,Durango,DGIST000100,Unidad de Medicina Familiar,Las Nieves,Primer Nivel,Propia,26.3954,-105.3945,Calle,Tomas Urbina,S/N,Colonia,Centro,35381,"Calle Tomas Urbina S/N, Colonia Centro, Ocampo, Durango, CP. 35381",UMF Las Nieves
Durango,Mapimí,Durango,DGIST000071,Unidad de Medicina Familiar,Mapimí,Primer Nivel,Propia,25.832,-103.8483,Calle,Zaragoza,S/N,Colonia,Centro,35200,"Calle Zaragoza S/N, Colonia Centro, Mapimí, Durango, CP. 35200",UMF Mapimí
Durango,Nazas,Durango,DGIST000083,Unidad de Medicina Familiar,Paso Nacional,Primer Nivel,Propia,25.2619,-104.0191,Calle,Venustiano Carranza Esquina Vicente Guerrero,S/N,Colonia,Centro,35703,"Calle Venustiano Carranza Esquina Vicente Guerrero S/N, Colonia Centro, Nazas, Durango, CP. 35703",UMF Paso Nacional
Durango,Peñón Blanco,Durango,DGIST000380,Consultorio de Atención Familiar,Peñón Blanco,Primer Nivel,Subrogada,24.7883,-104.021,Calle,Sin Medico,S/N,Colonia,Sin Medico,34760,"Calle Sin Medico S/N, Colonia Sin Medico, Peñón Blanco, Durango, CP. 34760",CAF Peñón Blanco
Durango,San Juan de Guadalupe,Durango,DGIST000416,Consultorio de Atención Familiar,San Juan de Guadalupe,Primer Nivel,Subrogada,24.6322,-102.7803,Calle,Allende,S/N,Colonia,Centro,35900,"Calle Allende S/N, Colonia Centro, San Juan de Guadalupe, Durango, CP. 35900",CAF San Juan de Guadalupe
Durango,El Oro,Durango,DGIST000112,Unidad de Medicina Familiar,Santa María del Oro,Primer Nivel,Propia,25.9573,-105.3664,Avenida,Juárez,S/N,Colonia,Centro,35660,"Avenida Juárez S/N, Colonia Centro, El Oro, Durango, CP. 35660",UMF Santa María del Oro
Durango,Tlahualilo,Durango,DGIST000170,Unidad de Medicina Familiar,Tlahualilo de Zaragoza,Primer Nivel,Propia,26.1048,-103.439,Avenida,Aguascalientes,S/N,Colonia,Centro,35250,"Avenida Aguascalientes S/N, Colonia Centro, Tlahualilo, Durango, CP. 35250",UMF Tlahualilo de Zaragoza
Durango,Lerdo,Durango,DGIST000363,Consultorio de Atención Familiar,Cd. Juárez,Primer Nivel,Subrogada,25.4881,-103.5943,Calle,Morelos,S/N,Colonia,Centro,35180,"Calle Morelos S/N, Colonia Centro, Lerdo, Durango, CP. 35180",CAF Cd. Juárez
Durango,Santa Clara,Durango,DGIST000404,Consultorio de Atención Familiar,Santa Clara,Primer Nivel,Subrogada,24.474,-103.3577,Calle,Constitucion,S/N,Colonia,Centro,35890,"Calle Constitucion S/N, Colonia Centro, Santa Clara, Durango, CP. 35890",CAF Santa Clara
Durango,Mapimí,Durango,DGIST000351,Consultorio de Atención Familiar,Bermejillo,Primer Nivel,Subrogada,25.8861,-103.6226,Calle,Maria Ines de la Cruz,S/N,Colonia,Centro,35230,"Calle Maria Ines de la Cruz S/N, Colonia Centro, Mapimí, Durango, CP. 35230",CAF Bermejillo
Durango,General Simón Bolívar,Durango,DGIST000433,Consultorio de Atención Familiar,General Simón Bolívar,Primer Nivel,Subrogada,24.6868,-103.2259,Calle,Emiliano Matamoros,S/N,Colonia,Centro,34451,"Calle Emiliano Matamoros S/N, Colonia Centro, General Simón Bolívar, Durango, CP. 34451",CAF General Simón Bolívar
Durango,San Bernardo,Durango,DGIST000450,Consultorio de Atención Familiar,San Bernardo,Primer Nivel,Subrogada,26.0025,-105.5252,Calle,Libertad,S/N,Barrio,Libertad,35490,"Calle Libertad S/N, Barrio Libertad, San Bernardo, Durango, CP. 35490",CAF San Bernardo
Durango,Durango,Durango,DGIST000030,Clínica de Medicina Familiar,Durango,Primer Nivel,Propia,24.029,-104.6819,Calle,Velino M. Preza,S/N,Colonia,Silvestre Dorador,34070,"Calle Velino M. Preza S/N, Colonia Silvestre Dorador, Durango, Durango, CP. 34070",CMF Durango
Durango,Canatlán,Durango,DGIST000013,Unidad de Medicina Familiar,Canatlán de las Manzanas,Primer Nivel,Propia,24.521,-104.7776,Calle,Morelos,S/N,Colonia,Valenzuela,34409,"Calle Morelos S/N, Colonia Valenzuela, Canatlán, Durango, CP. 34409",UMF Canatlán de las Manzanas
Durango,Canelas,Durango,DGIST000206,Consultorio de Atención Familiar,Canelas,Primer Nivel,Subrogada,25.1217,-106.5453,Calle,5 de Mayo ,S/N,Colonia,Centro,34500,"Calle 5 de Mayo  S/N, Colonia Centro, Canelas, Durango, CP. 34500",CAF Canelas
Durango,Pueblo Nuevo,Durango,DGIST000124,Unidad de Medicina Familiar,El Salto,Primer Nivel,Propia,23.7867,-105.3624,Calle,Ignacio Lopez Rayon,S/N,Colonia,Insurgentes,34942,"Calle Ignacio Lopez Rayon S/N, Colonia Insurgentes, Pueblo Nuevo, Durango, CP. 34942",UMF El Salto
Durango,Pánuco de Coronado,Durango,DGIST000223,Consultorio de Atención Familiar,Francisco I. Madero,Primer Nivel,Subrogada,24.3997,-104.318,Calzada,Pino Suales,S/N,Colonia,Centro,34781,"Calzada Pino Suales S/N, Colonia Centro, Pánuco de Coronado, Durango, CP. 34781",CAF Francisco I. Madero
Durango,Guadalupe Victoria,Durango,DGIST000066,Unidad de Medicina Familiar,Guadalupe Victoria,Primer Nivel,Propia,24.4394,-104.1226,Avenida,Heroes de Chapultepec,S/N,Colonia,Centro,34702,"Avenida Heroes de Chapultepec S/N, Colonia Centro, Guadalupe Victoria, Durango, CP. 34702",UMF Guadalupe Victoria
Durango,Guanaceví,Durango,DGIST000235,Consultorio de Atención Familiar,Guanaceví,Primer Nivel,Subrogada,25.9325,-105.9568,Calle,Ocampo,S/N,Colonia,Centro,35400,"Calle Ocampo S/N, Colonia Centro, Guanaceví, Durango, CP. 35400",CAF Guanaceví
Durango,Canatlán,Durango,DGIST000445,Unidad de Medicina Familiar,José Guadalupe Aguilera,Primer Nivel,Propia,24.4508,-104.7078,Calle,Aldama,S/N,Colonia,Centro,34465,"Calle Aldama S/N, Colonia Centro, Canatlán, Durango, CP. 34465",UMF José Guadalupe Aguilera
Durango,Nombre de Dios,Durango,DGIST000095,Unidad de Medicina Familiar,Nombre de Dios,Primer Nivel,Propia,23.8488,-104.2453,Calle,Guardarraya,S/N,Colonia,Centro,34840,"Calle Guardarraya S/N, Colonia Centro, Nombre de Dios, Durango, CP. 34840",UMF Nombre de Dios
Durango,Nuevo Ideal,Durango,DGIST000194,Unidad de Medicina Familiar,Nuevo Ideal,Primer Nivel,Propia,24.8861,-105.0748,Calle,Madero,S/N,Colonia,Centro,34420,"Calle Madero S/N, Colonia Centro, Nuevo Ideal, Durango, CP. 34420",UMF Nuevo Ideal
Durango,San Juan del Río,Durango,DGIST000141,Unidad de Medicina Familiar,San Juan del Río,Primer Nivel,Propia,24.7786,-104.4665,Calle,del Maestro,S/N,Fraccionamiento,Centauro Del Norte,34490,"Calle del Maestro S/N, Fraccionamiento Centauro Del Norte, San Juan del Río, Durango, CP. 34490",UMF San Juan del Río
Durango,San Juan del Río,Durango,DGIST000281,Consultorio de Atención Familiar,San Lucas de Ocampo,Primer Nivel,Subrogada,24.7271,-104.634,Calle,Sin Medico,S/N,Colonia,Sin Medico,34490,"Calle Sin Medico S/N, Colonia Sin Medico, San Juan del Río, Durango, CP. 34490",CAF San Lucas de Ocampo
Durango,Santiago Papasquiaro,Durango,DGIST000153,Unidad de Medicina Familiar,Santiago Papasquíaro,Primer Nivel,Propia,25.0472,-105.4204,Calzada,José Ramón Valdéz,S/N,Colonia,Altamira,34600,"Calzada José Ramón Valdéz S/N, Colonia Altamira, Santiago Papasquiaro, Durango, CP. 34600",UMF Santiago Papasquíaro
Durango,Súchil,Durango,DGIST000293,Consultorio de Atención Familiar,Súchil,Primer Nivel,Subrogada,23.6219,-103.9245,Calle,Independencia,S/N,Colonia,Centro,34900,"Calle Independencia S/N, Colonia Centro, Súchil, Durango, CP. 34900",CAF Súchil
Durango,Tamazula,Durango,DGIST000305,Consultorio de Atención Familiar,Tamazula de Victoria,Primer Nivel,Subrogada,24.9722,-106.9673,Calle,Libertad,S/N,Colonia,Centro,34581,"Calle Libertad S/N, Colonia Centro, Tamazula, Durango, CP. 34581",CAF Tamazula de Victoria
Durango,San Dimas,Durango,DGIST000310,Consultorio de Atención Familiar,Tayoltita,Primer Nivel,Subrogada,24.1048,-105.9306,Calle,La Plazuela,S/N,Barrio,De La Plazuela,34641,"Calle La Plazuela S/N, Barrio De La Plazuela, San Dimas, Durango, CP. 34641",CAF Tayoltita
Durango,Tepehuanes,Durango,DGIST000165,Unidad de Medicina Familiar,Tepehuanes,Primer Nivel,Propia,25.3419,-105.7209,Callejón,del Río,S/N,Colonia,Centro,35600,"Callejón del Río S/N, Colonia Centro, Tepehuanes, Durango, CP. 35600",UMF Tepehuanes
Durango,Topia,Durango,DGIST000322,Consultorio de Atención Familiar,Topia,Primer Nivel,Subrogada,25.2108,-106.5725,Calle,Cuauhtemoc,S/N,Barrio,Paloma Azul,34540,"Calle Cuauhtemoc S/N, Barrio Paloma Azul, Topia, Durango, CP. 34540",CAF Topia
Durango,Vicente Guerrero,Durango,DGIST000182,Unidad de Medicina Familiar,Vicente Guerrero,Primer Nivel,Propia,23.7259,-103.9809,Calle,Mina,S/N,Colonia,Centro,34891,"Calle Mina S/N, Colonia Centro, Vicente Guerrero, Durango, CP. 34891",UMF Vicente Guerrero
Durango,Poanas,Durango,DGIST000334,Unidad de Medicina Familiar,Villa Unión,Primer Nivel,Propia,23.9829,-104.0434,Carretera,Villita de San Atenojenes,S/N,Pueblo,Villa Unión,34800,"Carretera Villita de San Atenojenes S/N, Pueblo Villa Unión, Poanas, Durango, CP. 34800",UMF Villa Unión
Durango,Tamazula,Durango,DGIST000240,Consultorio de Atención Familiar,Los Remedios,Primer Nivel,Subrogada,24.6191,-106.4058,Avenida,Principal,S/N,Colonia,Centro,34590,"Avenida Principal S/N, Colonia Centro, Tamazula, Durango, CP. 34590",CAF Los Remedios
Durango,Mezquital,Durango,DGIST000252,Consultorio de Atención Familiar,El Mezquital,Primer Nivel,Subrogada,23.4735,-104.3972,Calle,Zaragoza,S/N,Colonia,Centro,34973,"Calle Zaragoza S/N, Colonia Centro, Mezquital, Durango, CP. 34973",CAF El Mezquital
Guanajuato,Irapuato,Guanajuato,GTIST000086,Clinica Hospital,Irapuato,Segundo Nivel,Propia,20.6882,-101.3671,Paseo,de la Ribera,S/N,Fraccionamiento,Las Trojes,36640,"Paseo de la Ribera S/N, Fraccionamiento Las Trojes, Irapuato, Guanajuato, CP. 36640",CH Irapuato
Guanajuato,Abasolo,Guanajuato,GTIST000016,Unidad de Medicina Familiar,Abasolo,Primer Nivel,Propia,20.4465,-101.5262,Calle,Picacho,S/N,Colonia,Lomas De Santa María,36974,"Calle Picacho S/N, Colonia Lomas De Santa María, Abasolo, Guanajuato, CP. 36974",UMF Abasolo
Guanajuato,Cuerámaro,Guanajuato,GTIST000260,Consultorio de Atención Familiar,Cuerámaro,Primer Nivel,Subrogada,20.6273,-101.671,Calle,Galeana,S/N,Colonia,Centro,36961,"Calle Galeana S/N, Colonia Centro, Cuerámaro, Guanajuato, CP. 36961",CAF Cuerámaro
Guanajuato,Moroleón,Guanajuato,GTIST000103,Unidad de Medicina Familiar,Moroleón,Primer Nivel,Propia,20.1248,-101.2049,Calle,Diamante,S/N,Fraccionamiento,El Pedregal,38863,"Calle Diamante S/N, Fraccionamiento El Pedregal, Moroleón, Guanajuato, CP. 38863",UMF Moroleón
Guanajuato,Pénjamo,Guanajuato,GTIST000115,Unidad de Medicina Familiar,Pénjamo,Primer Nivel,Propia,20.4369,-101.7103,Carretera,Hilarion Espinosa Gonzalez,S/N,Colonia,Centro,36900,"Carretera Hilarion Espinosa Gonzalez S/N, Colonia Centro, Pénjamo, Guanajuato, CP. 36900",UMF Pénjamo
Guanajuato,Uriangato,Guanajuato,GTIST000185,Unidad de Medicina Familiar,Uriangato,Primer Nivel,Propia,20.1358,-101.1756,Cerrada,de Ignacio Zaragoza,S/N,Colonia,Centro,38980,"Cerrada de Ignacio Zaragoza S/N, Colonia Centro, Uriangato, Guanajuato, CP. 38980",UMF Uriangato
Guanajuato,Valle de Santiago,Guanajuato,GTIST000190,Unidad de Medicina Familiar,Valle de Santiago,Primer Nivel,Propia,20.3965,-101.2029,Calle,Pino Suárez,S/N,Colonia,Lindavista,38406,"Calle Pino Suárez S/N, Colonia Lindavista, Valle de Santiago, Guanajuato, CP. 38406",UMF Valle de Santiago
Guanajuato,Yuriria,Guanajuato,GTIST000202,Unidad de Medicina Familiar,Yuriria,Primer Nivel,Propia,20.2154,-101.1309,Calle,Fray Nicolas P. Navarrete,S/N,Colonia,Centro,38940,"Calle Fray Nicolas P. Navarrete S/N, Colonia Centro, Yuriria, Guanajuato, CP. 38940",UMF Yuriria
Guanajuato,Manuel Doblado,Guanajuato,GTIST000243,Unidad de Medicina Familiar,Cd. Manuel Doblado,Primer Nivel,Propia,20.7266,-101.9417,Carretera,Libramiento,S/N,Colonia,La Cayetana,36470,"Carretera Libramiento S/N, Colonia La Cayetana, Manuel Doblado, Guanajuato, CP. 36470",UMF Cd. Manuel Doblado
Guanajuato,Romita,Guanajuato,GTIST000313,Consultorio de Atención Familiar,Romita,Primer Nivel,Subrogada,20.8705,-101.5169,Calle,Obregón,S/N,Colonia,Centro,36470,"Calle Obregón S/N, Colonia Centro, Romita, Guanajuato, CP. 36470",CAF Romita
Guanajuato,San Francisco del Rincón,Guanajuato,GTIST000144,Unidad de Medicina Familiar,San Francisco del Rincón,Primer Nivel,Propia,21.0094,-101.8616,Calle,Valladolid,S/N,Colonia,Del Valle ,36370,"Calle Valladolid S/N, Colonia Del Valle , San Francisco del Rincón, Guanajuato, CP. 36370",UMF San Francisco del Rincón
Guanajuato,Salamanca,Guanajuato,GTIST000325,Clínica de Medicina Familiar,Salamanca,Primer Nivel,Propia,20.5555,-101.1997,Calle,Álvaro Obregón Sur,S/N,Colonia,Camino El Cerrito (FOVISSSTE),36775,"Calle Álvaro Obregón Sur S/N, Colonia Camino El Cerrito (FOVISSSTE), Salamanca, Guanajuato, CP. 36775",CMF Salamanca
Guanajuato,Guanajuato,Guanajuato,GTIST000074,Clinica Hospital,"Guanajuato, Gto.",Segundo Nivel,Propia,21.0045,-101.2535,Camino,Cerro del Hormiguero,S/N,Colonia,Centro,36000,"Camino Cerro del Hormiguero S/N, Colonia Centro, Guanajuato, Guanajuato, CP. 36000","CH Guanajuato, Gto."
Guanajuato,Dolores Hidalgo Cuna de la Independencia Nacional,Guanajuato,GTIST000062,Unidad de Medicina Familiar,Dolores Hidalgo,Primer Nivel,Propia,21.1519,-100.9299,Calle,Rivera del Rio,S/N,Colonia,Insurgentes,37805,"Calle Rivera del Rio S/N, Colonia Insurgentes, Dolores Hidalgo Cuna de la Independencia Nacional, Guanajuato, CP. 37805",UMF Dolores Hidalgo
Guanajuato,San Diego de la Unión,Guanajuato,GTIST000330,Consultorio de Atención Familiar,San Diego de la Unión,Primer Nivel,Subrogada,21.4667,-100.8744,Calle,Guerrero,S/N,Colonia,Centro,37850,"Calle Guerrero S/N, Colonia Centro, San Diego de la Unión, Guanajuato, CP. 37850",CAF San Diego de la Unión
Guanajuato,San Luis de la Paz,Guanajuato,GTIST000161,Unidad de Medicina Familiar,San Luís de La Paz,Primer Nivel,Propia,21.2887,-100.5132,Libramiento,Sur,S/N,Colonia,Centro,37900,"Libramiento Sur S/N, Colonia Centro, San Luis de la Paz, Guanajuato, CP. 37900",UMF San Luís de La Paz
Guanajuato,San José Iturbide,Guanajuato,GTIST000156,Unidad de Medicina Familiar,San José Iturbide,Primer Nivel,Propia,21.0057,-100.3851,Calle,Cuahutémoc,S/N,Colonia,La Llorano,37900,"Calle Cuahutémoc S/N, Colonia La Llorano, San José Iturbide, Guanajuato, CP. 37900",UMF San José Iturbide
Guanajuato,Tierra Blanca,Guanajuato,GTIST000383,Consultorio de Atención Familiar,Tierra Blanca,Primer Nivel,Subrogada,21.1013,-100.158,Carretera,A San José,S/N,Colonia,Centro,37920,"Carretera A San José S/N, Colonia Centro, Tierra Blanca, Guanajuato, CP. 37920",CAF Tierra Blanca
Guanajuato,Victoria,Guanajuato,GTIST000395,Unidad de Medicina Familiar,Villa Victoria,Primer Nivel,Propia,21.2112,-100.2083,Carretera,Milpillas Entronque Tazajillo,S/N,Colonia,Centro,37920,"Carretera Milpillas Entronque Tazajillo S/N, Colonia Centro, Victoria, Guanajuato, CP. 37920",UMF Villa Victoria
Guanajuato,Doctor Mora,Guanajuato,GTIST000272,Consultorio de Atención Familiar,Dr. Mora,Primer Nivel,Subrogada,21.1417,-100.3245,Calle,Fulgencio Guerra Soria,S/N,Colonia,La Cantera,37960,"Calle Fulgencio Guerra Soria S/N, Colonia La Cantera, Doctor Mora, Guanajuato, CP. 37960",CAF Dr. Mora
Guanajuato,Xichú,Guanajuato,GTIST000412,Consultorio de Atención Familiar,Xichú,Primer Nivel,Subrogada,21.2965,-100.0631,Privada,Hidalgo,S/N,Colonia,Centro,37930,"Privada Hidalgo S/N, Colonia Centro, Xichú, Guanajuato, CP. 37930",CAF Xichú
Guanajuato,Ocampo,Guanajuato,GTIST000301,Consultorio de Atención Familiar,Ocampo,Primer Nivel,Subrogada,21.6491,-101.4762,Calle,Santa Teresa,S/N,Colonia,San Antonio,37630,"Calle Santa Teresa S/N, Colonia San Antonio, Ocampo, Guanajuato, CP. 37630",CAF Ocampo
Guanajuato,San Felipe,Guanajuato,GTIST000132,Unidad de Medicina Familiar,San Felipe Torres Mochas,Primer Nivel,Propia,21.4779,-101.2037,Calle,Jalisco Esquina Michoacán,S/N,Colonia,Unidad FOVISSSTE,37600,"Calle Jalisco Esquina Michoacán S/N, Colonia Unidad FOVISSSTE, San Felipe, Guanajuato, CP. 37600",UMF San Felipe Torres Mochas
Guanajuato,Silao de la Victoria,Guanajuato,GTIST000173,Unidad de Medicina Familiar,Silao,Primer Nivel,Propia,20.9517,-101.419,Camino,A Pabileros Esquina Solidaridad,S/N,Colonia,Progreso,36135,"Camino A Pabileros Esquina Solidaridad S/N, Colonia Progreso, Silao de la Victoria, Guanajuato, CP. 36135",UMF Silao
Guanajuato,Celaya,Guanajuato,GTIST000045,Clinica Hospital,Celaya,Segundo Nivel,Propia,20.541,-100.8355,Avenida,El Sauz,S/N,Colonia,San Juanico,38020,"Avenida El Sauz S/N, Colonia San Juanico, Celaya, Guanajuato, CP. 38020",CH Celaya
Guanajuato,Acámbaro,Guanajuato,GTIST000021,Unidad de Medicina Familiar,Acámbaro,Primer Nivel,Propia,20.024,-100.7181,Calle,Laurel,S/N,Colonia,Lomas Verdes,38600,"Calle Laurel S/N, Colonia Lomas Verdes, Acámbaro, Guanajuato, CP. 38600",UMF Acámbaro
Guanajuato,Apaseo el Alto,Guanajuato,GTIST000214,Unidad de Medicina Familiar,Apaseo el Alto,Primer Nivel,Propia,20.46,-100.6154,Calle,1 De Mayo,S/N,Colonia,Centro,38500,"Calle 1 De Mayo S/N, Colonia Centro, Apaseo el Alto, Guanajuato, CP. 38500",UMF Apaseo el Alto
Guanajuato,Apaseo el Grande,Guanajuato,GTIST000226,Unidad de Medicina Familiar,Apaseo el Grande,Primer Nivel,Propia,20.5533,-100.6863,Calle,Francisco Villa,S/N,Colonia,Casas Blancas,38163,"Calle Francisco Villa S/N, Colonia Casas Blancas, Apaseo el Grande, Guanajuato, CP. 38163",UMF Apaseo el Grande
Guanajuato,Comonfort,Guanajuato,GTIST000255,Unidad de Medicina Familiar,Comonfort,Primer Nivel,Propia,20.7392,-100.7575,Privada,Arroyo Jalpilla,S/N,Colonia,Rio Laja,38204,"Privada Arroyo Jalpilla S/N, Colonia Rio Laja, Comonfort, Guanajuato, CP. 38204",UMF Comonfort
Guanajuato,Cortazar,Guanajuato,GTIST000050,Unidad de Medicina Familiar,Cortázar,Primer Nivel,Propia,20.4837,-100.9535,Calle,Manuel Doblado,S/N,Colonia,Villas Del Sol,38310,"Calle Manuel Doblado S/N, Colonia Villas Del Sol, Cortazar, Guanajuato, CP. 38310",UMF Cortázar
Guanajuato,Jaral del Progreso,Guanajuato,GTIST000284,Consultorio de Atención Familiar,Jaral del Progreso,Primer Nivel,Subrogada,20.3715,-101.062,Calle,Morelos 429,S/N,Colonia,Centro,38474,"Calle Morelos 429 S/N, Colonia Centro, Jaral del Progreso, Guanajuato, CP. 38474",CAF Jaral del Progreso
Guanajuato,Jerécuaro,Guanajuato,GTIST000296,Consultorio de Atención Familiar,Jerécuaro,Primer Nivel,Subrogada,20.1474,-100.5103,Calle,Fray Angel Juarez,S/N,Colonia,Centro,38540,"Calle Fray Angel Juarez S/N, Colonia Centro, Jerécuaro, Guanajuato, CP. 38540",CAF Jerécuaro
Guanajuato,Santa Cruz de Juventino Rosas,Guanajuato,GTIST000342,Unidad de Medicina Familiar,Juventino Rosas,Primer Nivel,Propia,20.6407,-100.9848,Calle,José Vasconcelos Esquina Moises Sainz,S/N,Colonia,Magisterial,38244,"Calle José Vasconcelos Esquina Moises Sainz S/N, Colonia Magisterial, Santa Cruz de Juventino Rosas, Guanajuato, CP. 38244",UMF Juventino Rosas
Guanajuato,Celaya,Guanajuato,GTIST000231,Consultorio de Atención Familiar,Roque,Primer Nivel,Convenio,20.5814,-100.8268,Carretera,Celaya-Juventino Rosas Km. 8,S/N,Colonia,Roque,38124,"Carretera Celaya-Juventino Rosas Km. 8 S/N, Colonia Roque, Celaya, Guanajuato, CP. 38124",CAF Roque
Guanajuato,Salvatierra,Guanajuato,GTIST000120,Unidad de Medicina Familiar,Salvatierra,Primer Nivel,Propia,20.2114,-100.8773,Privada,de Mina,S/N,Colonia,Centro,38900,"Privada de Mina S/N, Colonia Centro, Salvatierra, Guanajuato, CP. 38900",UMF Salvatierra
Guanajuato,San Miguel de Allende,Guanajuato,GTIST000033,Unidad de Medicina Familiar,San Miguel de Allende,Primer Nivel,Propia,20.9032,-100.7203,Calle,Francisco José de Landeta,S/N,Fraccionamiento,Insurgentes,37746,"Calle Francisco José de Landeta S/N, Fraccionamiento Insurgentes, San Miguel de Allende, Guanajuato, CP. 37746",UMF San Miguel de Allende
Guanajuato,Santiago Maravatío,Guanajuato,GTIST000354,Consultorio de Atención Familiar,Santiago Maravatío,Primer Nivel,Subrogada,20.1744,-100.9911,Calle,Juarez,S/N,Colonia,Centro,38970,"Calle Juarez S/N, Colonia Centro, Santiago Maravatío, Guanajuato, CP. 38970",CAF Santiago Maravatío
Guanajuato,Tarandacuao,Guanajuato,GTIST000366,Consultorio de Atención Familiar,Tarandacuao,Primer Nivel,Subrogada,20.0029,-100.5173,Calle,16 de Septiembre,S/N,Colonia,Centro,38790,"Calle 16 de Septiembre S/N, Colonia Centro, Tarandacuao, Guanajuato, CP. 38790",CAF Tarandacuao
Guanajuato,Tarimoro,Guanajuato,GTIST000371,Consultorio de Atención Familiar,Tarimoro,Primer Nivel,Subrogada,20.2881,-100.7572,Calle,Ocampo ,S/N,Colonia,Centro,38700,"Calle Ocampo  S/N, Colonia Centro, Tarimoro, Guanajuato, CP. 38700",CAF Tarimoro
Guanajuato,Villagrán,Guanajuato,GTIST000400,Unidad de Medicina Familiar,Villagrán,Primer Nivel,Propia,20.5162,-100.9901,Avenida,Luis Donaldo Colosio,S/N,Colonia,Centro,38260,"Avenida Luis Donaldo Colosio S/N, Colonia Centro, Villagrán, Guanajuato, CP. 38260",UMF Villagrán
Guanajuato,León,Guanajuato,GTIST000423,Clínica de Medicina Familiar con Especialidades y Quirófano,León,Segundo Nivel,Propia,21.098,-101.6492,Calle,Cholula,S/N,Colonia,Azteca,37520,"Calle Cholula S/N, Colonia Azteca, León, Guanajuato, CP. 37520",CMFEQ León
Guerrero,Chilpancingo de los Bravo,Guerrero,GRIST000112,Clinica Hospital,Chilpancingo de los Bravo,Segundo Nivel,Propia,17.5349,-99.4908,Avenida,Rufo Figueroa,S/N,Colonia,Burocratas,39090,"Avenida Rufo Figueroa S/N, Colonia Burocratas, Chilpancingo de los Bravo, Guerrero, CP. 39090",CH Chilpancingo de los Bravo
Guerrero,Chilapa de Álvarez,Guerrero,GRIST000100,Unidad de Medicina Familiar,Chilapa de Álvarez,Primer Nivel,Propia,17.5941,-99.1761,Calle,6 Norte,S/N,Colonia,Centro,41100,"Calle 6 Norte S/N, Colonia Centro, Chilapa de Álvarez, Guerrero, CP. 41100",UMF Chilapa de Álvarez
Guerrero,Mochitlán,Guerrero,GRIST000450,Unidad de Medicina Familiar,Mochitlán,Primer Nivel,Propia,17.4731,-99.3711,Calle,Libertad,S/N,Barrio,De San Pedro,39230,"Calle Libertad S/N, Barrio De San Pedro, Mochitlán, Guerrero, CP. 39230",UMF Mochitlán
Guerrero,Chilpancingo de los Bravo,Guerrero,GRIST000124,Unidad de Medicina Familiar,El Ocotito,Primer Nivel,En Proceso de Regularización,17.2475,-99.5183,Calle,Lerdo de Tejada,S/N,Colonia,Vista Hermosa,39120,"Calle Lerdo de Tejada S/N, Colonia Vista Hermosa, Chilpancingo de los Bravo, Guerrero, CP. 39120",UMF El Ocotito
Guerrero,Olinalá,Guerrero,GRIST000182,Unidad de Medicina Familiar,Olinalá,Primer Nivel,En Proceso de Regularización,17.7761,-98.7356,Calle,Olinka,S/N,Colonia,San Jose,41400,"Calle Olinka S/N, Colonia San Jose, Olinalá, Guerrero, CP. 41400",UMF Olinalá
Guerrero,Juan R. Escudero,Guerrero,GRIST000170,Unidad de Medicina Familiar,Tierra Colorada,Primer Nivel,Propia,17.1662,-99.526,Carretera,Nacional,S/N,Colonia,Centro,39944,"Carretera Nacional S/N, Colonia Centro, Juan R. Escudero, Guerrero, CP. 39944",UMF Tierra Colorada
Guerrero,Tixtla de Guerrero,Guerrero,GRIST000281,Unidad de Medicina Familiar,Tixtla de Guerrero,Primer Nivel,Propia,17.5617,-99.4055,Calle,Insurgentes,S/N,Colonia,La Haciendita,39170,"Calle Insurgentes S/N, Colonia La Haciendita, Tixtla de Guerrero, Guerrero, CP. 39170",UMF Tixtla de Guerrero
Guerrero,Huamuxtitlán,Guerrero,GRIST000136,Unidad de Medicina Familiar,Huamuxtitlán,Primer Nivel,Propia,17.8092,-98.5675,Calle,Centenario,S/N,Colonia,El Rosario,34690,"Calle Centenario S/N, Colonia El Rosario, Huamuxtitlán, Guerrero, CP. 34690",UMF Huamuxtitlán
Guerrero,Malinaltepec,Guerrero,GRIST000433,Consultorio de Atención Familiar,Malinaltepec,Primer Nivel,Convenio,17.2445,-98.6713,Calle,Niños Heroes Frente Al Mercado Municipal,S/N,Colonia,Centro,41930,"Calle Niños Heroes Frente Al Mercado Municipal S/N, Colonia Centro, Malinaltepec, Guerrero, CP. 41930",CAF Malinaltepec
Guerrero,Iliatenco,Guerrero,GRIST000503,Consultorio de Atención Familiar,Iliatenco,Primer Nivel,Subrogada,17.0462,-98.6882,Calle,Centro,S/N,Colonia,Iliatenco,41530,"Calle Centro S/N, Colonia Iliatenco, Iliatenco, Guerrero, CP. 41530",CAF Iliatenco
Guerrero,Iguala de la Independencia,Guerrero,GRIST000153,Clinica Hospital,Iguala de la Independencia,Segundo Nivel,Propia,18.3414,-99.5275,Avenida,Heroico Colegio Militar,S/N,Colonia,Centro,40000,"Avenida Heroico Colegio Militar S/N, Colonia Centro, Iguala de la Independencia, Guerrero, CP. 40000",CH Iguala de la Independencia
Guerrero,Ajuchitlán del Progreso,Guerrero,GRIST000030,Unidad de Medicina Familiar,Ajuchitlán del Progreso,Primer Nivel,En Proceso de Regularización,18.1599,-100.4967,Calle,J. Inocente Lugo,S/N,Colonia,Centro,40730,"Calle J. Inocente Lugo S/N, Colonia Centro, Ajuchitlán del Progreso, Guerrero, CP. 40730",UMF Ajuchitlán del Progreso
Guerrero,Apaxtla de Castrejón,Guerrero,GRIST000363,Unidad de Medicina Familiar,Apaxtla de Castrejón,Primer Nivel,Propia,18.1287,-99.9335,Calle,Principal,S/N,Colonia,Centro,40537,"Calle Principal S/N, Colonia Centro, Apaxtla de Castrejón, Guerrero, CP. 40537",UMF Apaxtla de Castrejón
Guerrero,Arcelia,Guerrero,GRIST000042,Unidad de Medicina Familiar,Arcelia,Primer Nivel,Propia,18.3209,-100.2787,Avenida,Lázaro Cárdenas,S/N,Colonia,Vista Hermosa,40500,"Avenida Lázaro Cárdenas S/N, Colonia Vista Hermosa, Arcelia, Guerrero, CP. 40500",UMF Arcelia
Guerrero,Buenavista de Cuéllar,Guerrero,GRIST000380,Consultorio de Atención Familiar,Buenavista de Cuéllar,Primer Nivel,Convenio,18.4598,-99.4088,Carretera,Iguala Cuernavaca,S/N,Colonia,Buena Vista De Cuellar,40330,"Carretera Iguala Cuernavaca S/N, Colonia Buena Vista De Cuellar, Buenavista de Cuéllar, Guerrero, CP. 40330",CAF Buenavista de Cuéllar
Guerrero,Coyuca de Catalán,Guerrero,GRIST000095,Unidad de Medicina Familiar,Coyuca de Catalán,Primer Nivel,En Proceso de Regularización,18.3291,-100.6984,Avenida,Cuahutémoc,S/N,Colonia,Centro,40700,"Avenida Cuahutémoc S/N, Colonia Centro, Coyuca de Catalán, Guerrero, CP. 40700",UMF Coyuca de Catalán
Guerrero,Cutzamala de Pinzón,Guerrero,GRIST000404,Consultorio de Atención Familiar,Cutzamala de Pinzón,Primer Nivel,En Proceso de Regularización,18.4687,-100.5776,Calle,Emiliano Zapata,S/N,Colonia,Centro,40635,"Calle Emiliano Zapata S/N, Colonia Centro, Cutzamala de Pinzón, Guerrero, CP. 40635",CAF Cutzamala de Pinzón
Guerrero,Huitzuco de los Figueroa,Guerrero,GRIST000141,Unidad de Medicina Familiar,Huitzuco de los Figueroa,Primer Nivel,Propia,18.2979,-99.3352,Calle,Pinos,4,Colonia,Del Real,40130,"Calle Pinos 4, Colonia Del Real, Huitzuco de los Figueroa, Guerrero, CP. 40130",UMF Huitzuco de los Figueroa
Guerrero,Teloloapan,Guerrero,GRIST000276,Unidad de Medicina Familiar,Teloloapan,Primer Nivel,Propia,18.3503,-99.8737,Avenida,Ex Campo de Aviación,S/N,Colonia,Tanque Alto,40420,"Avenida Ex Campo de Aviación S/N, Colonia Tanque Alto, Teloloapan, Guerrero, CP. 40420",UMF Teloloapan
Guerrero,Tlapehuala,Guerrero,GRIST000305,Unidad de Medicina Familiar,Tlapehuala,Primer Nivel,Propia,18.2427,-100.5376,Calle,R. Leyva Mancilla,S/N,Colonia,Magisterial,40600,"Calle R. Leyva Mancilla S/N, Colonia Magisterial, Tlapehuala, Guerrero, CP. 40600",UMF Tlapehuala
Guerrero,Zirándaro,Guerrero,GRIST000491,Consultorio de Atención Familiar,Zirándaro,Primer Nivel,Subrogada,18.4773,-100.979,Calle,Jr Bermudez,S/N,Colonia,Centro,40760,"Calle Jr Bermudez S/N, Colonia Centro, Zirándaro, Guerrero, CP. 40760",CAF Zirándaro
Guerrero,Taxco de Alarcón,Guerrero,GRIST000252,Unidad de Medicina Familiar,Taxco de Alarcón,Primer Nivel,Propia,18.5616,-99.6017,Calle,de Los Plateros,S/N,Barrio,De La Garita,40230,"Calle de Los Plateros S/N, Barrio De La Garita, Taxco de Alarcón, Guerrero, CP. 40230",UMF Taxco de Alarcón
Guerrero,Ometepec,Guerrero,GRIST000194,Clínica de Medicina Familiar con Especialidades y Quirófano,Ometepec,Segundo Nivel,Propia,16.6896,-98.4111,Calle,Sonota,S/N,Barrio,De Talapa,41700,"Calle Sonota S/N, Barrio De Talapa, Ometepec, Guerrero, CP. 41700",CMFEQ Ometepec
Guerrero,Acapulco de Juárez,Guerrero,GRIST000013,Clínica de Medicina Familiar,Acapulco,Primer Nivel,Propia,16.8719,-99.8871,Calle,Solidaridad,S/N,Colonia,Alta Progreso,39610,"Calle Solidaridad S/N, Colonia Alta Progreso, Acapulco de Juárez, Guerrero, CP. 39610",CMF Acapulco
Guerrero,Acapulco de Juárez,Guerrero,GRIST000310,Unidad de Medicina Familiar,Lic. Adolfo López Mateos,Primer Nivel,Propia,16.8593,-99.9203,Calle,Primero de Mayo,S/N,Colonia,Unidada Habitacional Adolfo Lóopez Matéos,39470,"Calle Primero de Mayo S/N, Colonia Unidada Habitacional Adolfo Lóopez Matéos, Acapulco de Juárez, Guerrero, CP. 39470",UMF Lic. Adolfo López Mateos
Guerrero,Atoyac de Álvarez,Guerrero,GRIST000054,Unidad de Medicina Familiar,Atoyac de Álvarez,Primer Nivel,Propia,17.2066,-100.44,Calle,Mariscal,S/N,Colonia,Silvestre Mariscal,40930,"Calle Mariscal S/N, Colonia Silvestre Mariscal, Atoyac de Álvarez, Guerrero, CP. 40930",UMF Atoyac de Álvarez
Guerrero,Acapulco de Juárez,Guerrero,GRIST000322,Consultorio de Atención Familiar,Cd. Renacimiento,Primer Nivel,Rentada,16.9025,-99.8356,Calle,13 Esq Calle 18 ,S/N,Colonia,Emiliano Zapata,39407,"Calle 13 Esq Calle 18  S/N, Colonia Emiliano Zapata, Acapulco de Juárez, Guerrero, CP. 39407",CAF Cd. Renacimiento
Guerrero,Ayutla de los Libres,Guerrero,GRIST000066,Unidad de Medicina Familiar,Ayutla de los Libres,Primer Nivel,Propia,16.9687,-99.0927,Calle,Ignacio Manuel Altamirano,S/N,Colonia,San Felipe De Jesús,39200,"Calle Ignacio Manuel Altamirano S/N, Colonia San Felipe De Jesús, Ayutla de los Libres, Guerrero, CP. 39200",UMF Ayutla de los Libres
Guerrero,Coyuca de Benítez,Guerrero,GRIST000083,Unidad de Medicina Familiar,Coyuca de Benítez,Primer Nivel,Propia,17.0099,-100.0889,Avenida,Emperador Cuahutémoc,S/N,Colonia,Centro,40970,"Avenida Emperador Cuahutémoc S/N, Colonia Centro, Coyuca de Benítez, Guerrero, CP. 40970",UMF Coyuca de Benítez
Guerrero,Florencio Villarreal,Guerrero,GRIST000416,Consultorio de Atención Familiar,Cruz Grande,Primer Nivel,Subrogada,16.7221,-99.1283,Calle,Plaza Principal,S/N,Colonia,Centro,41800,"Calle Plaza Principal S/N, Colonia Centro, Florencio Villarreal, Guerrero, CP. 41800",CAF Cruz Grande
Guerrero,Cuajinicuilapa,Guerrero,GRIST000392,Unidad de Medicina Familiar,Cuajinicuilapa,Primer Nivel,Propia,16.4673,-98.4046,Calle,Hermenegildo Galeana,S/N,Colonia,Los Lirios,41940,"Calle Hermenegildo Galeana S/N, Colonia Los Lirios, Cuajinicuilapa, Guerrero, CP. 41940",UMF Cuajinicuilapa
Guerrero,San Marcos,Guerrero,GRIST000240,Unidad de Medicina Familiar,Las Vigas,Primer Nivel,Propia,16.7597,-99.228,Callejón, 20 de Noviembre,S/N,Colonia,Centro,39990,"Callejón  20 de Noviembre S/N, Colonia Centro, San Marcos, Guerrero, CP. 39990",UMF Las Vigas
Guerrero,Marquelia,Guerrero,GRIST000071,Unidad de Medicina Familiar,Marquelia,Primer Nivel,Propia,16.5836,-98.8144,Calle,Constitución,S/N,Colonia,16 De Septiembre,41930,"Calle Constitución S/N, Colonia 16 De Septiembre, Marquelia, Guerrero, CP. 41930",UMF Marquelia
Guerrero,Petatlán,Guerrero,GRIST000206,Unidad de Medicina Familiar,Petatlán,Primer Nivel,Propia,17.5351,-101.2669,Calle,Tamarindos,S/N,Colonia,Gustavo Diaz Ordaz,40853,"Calle Tamarindos S/N, Colonia Gustavo Diaz Ordaz, Petatlán, Guerrero, CP. 40853",UMF Petatlán
Guerrero,Benito Juárez,Guerrero,GRIST000375,Consultorio de Atención Familiar,San Jerónimo de Juárez,Primer Nivel,Subrogada,17.1372,-100.467,Calle, Progreso Sn Altos Prog Perd 16052007 Jsv Y Planta Alta F5430,S/N,Colonia,Centro,40960,"Calle  Progreso Sn Altos Prog Perd 16052007 Jsv Y Planta Alta F5430 S/N, Colonia Centro, Benito Juárez, Guerrero, CP. 40960",CAF San Jerónimo de Juárez
Guerrero,San Luis Acatlán,Guerrero,GRIST000223,Unidad de Medicina Familiar,San Luis Acatlán,Primer Nivel,Propia,16.806,-98.7313,Calle,Corregidora,S/N,Colonia,San Miguel,41600,"Calle Corregidora S/N, Colonia San Miguel, San Luis Acatlán, Guerrero, CP. 41600",UMF San Luis Acatlán
Guerrero,San Marcos,Guerrero,GRIST000235,Unidad de Medicina Familiar,San Marcos,Primer Nivel,Propia,16.7979,-99.3926,Calle,Mina y 5 de Febrero,S/N,Colonia,Centro,39960,"Calle Mina y 5 de Febrero S/N, Colonia Centro, San Marcos, Guerrero, CP. 39960",UMF San Marcos
Guerrero,Tecoanapa,Guerrero,GRIST000474,Unidad de Medicina Familiar,Tecoanapa,Primer Nivel,Propia,16.9879,-99.2571,Calle,Primero de Mayo,S/N,Colonia,San Juan,39270,"Calle Primero de Mayo S/N, Colonia San Juan, Tecoanapa, Guerrero, CP. 39270",UMF Tecoanapa
Guerrero,Acapulco de Juárez,Guerrero,GRIST000351,Consultorio de Atención Familiar,Xaltianguis,Primer Nivel,Subrogada,17.0968,-99.7174,Calle,20 de Noviembre,S/N,Colonia,Centro,39910,"Calle 20 de Noviembre S/N, Colonia Centro, Acapulco de Juárez, Guerrero, CP. 39910",CAF Xaltianguis
Guerrero,Zihuatanejo de Azueta,Guerrero,GRIST000165,Unidad de Medicina Familiar,Zihuatanejo,Primer Nivel,Propia,17.6474,-101.5236,Calle,Juan Pineda,S/N,Colonia,Agua De Correa,40894,"Calle Juan Pineda S/N, Colonia Agua De Correa, Zihuatanejo de Azueta, Guerrero, CP. 40894",UMF Zihuatanejo
Guerrero,Acapulco de Juárez,Guerrero,GRIST000334,Consultorio de Atención Familiar,UHF. Acapulco,Primer Nivel,Convenio,16.8769,-99.8969,Calle,del Maestro,S/N,Colonia,FOVISSSTE,39500,"Calle del Maestro S/N, Colonia FOVISSSTE, Acapulco de Juárez, Guerrero, CP. 39500",CAF UHF. Acapulco
Guerrero,Acapulco de Juárez,Guerrero,GRIST000346,Consultorio de Atención Familiar,UHF. Vicente Guerrero 200,Primer Nivel,Convenio,16.7731,-99.7705,Carretera,Acapulco Aeropuerto,S/N,Colonia,Aeropuerto,39899,"Carretera Acapulco Aeropuerto S/N, Colonia Aeropuerto, Acapulco de Juárez, Guerrero, CP. 39899",CAF UHF. Vicente Guerrero 200
Guerrero,Pungarabato,Guerrero,GRIST000211,Clínica de Medicina Familiar con Especialidades y Quirófano,Cd. Altamirano,Segundo Nivel,Propia,18.3595,-100.6775,Calle,Cipriano Jaimes Pte.,S/N,Colonia,Lindavista,40660,"Calle Cipriano Jaimes Pte. S/N, Colonia Lindavista, Pungarabato, Guerrero, CP. 40660",CMFEQ Cd. Altamirano
Guerrero,Técpan de Galeana,Guerrero,GRIST000264,Clínica de Medicina Familiar con Especialidades y Quirófano,Técpan de Galeana,Segundo Nivel,Propia,17.2043,-100.6281,Avenida,Mangos,S/N,Colonia,El Cerrito,40900,"Avenida Mangos S/N, Colonia El Cerrito, Técpan de Galeana, Guerrero, CP. 40900",CMFEQ Técpan de Galeana
Guerrero,Tlapa de Comonfort,Guerrero,GRIST000293,Clínica de Medicina Familiar con Especialidades y Quirófano,Tlapa de Comonfort,Segundo Nivel,Propia,17.5498,-98.5631,Callejón,El Chagui,S/N,Colonia,Contlalco,41304,"Callejón El Chagui S/N, Colonia Contlalco, Tlapa de Comonfort, Guerrero, CP. 41304",CMFEQ Tlapa de Comonfort
Hidalgo,Pachuca de Soto,Hidalgo,HGIST000106,Hospital General,"Dra. Columba Rivera Osorio, Pachuca",Segundo Nivel,Propia,20.0732,-98.7764,Carretera, México Pachuca Km. 86.5,S/N,Colonia,ISSSTE,42080,"Carretera  México Pachuca Km. 86.5 S/N, Colonia ISSSTE, Pachuca de Soto, Hidalgo, CP. 42080","HG Dra. Columba Rivera Osorio, Pachuca"
Hidalgo,Ixmiquilpan,Hidalgo,HGIST000065,Clinica Hospital,Ixmiquilpan,Segundo Nivel,Propia,20.4985,-99.181,Calle,El Nith Mirados,S/N,Colonia,El Nith,42300,"Calle El Nith Mirados S/N, Colonia El Nith, Ixmiquilpan, Hidalgo, CP. 42300",CH Ixmiquilpan
Hidalgo,Huichapan,Hidalgo,HGIST000053,Unidad de Medicina Familiar,Huichapan,Primer Nivel,Propia,20.3801,-99.652,Calle,Sostenes  Vega Esq. Ma. Tapia Lugo,S/N,Barrio, San Mateo,42400,"Calle Sostenes  Vega Esq. Ma. Tapia Lugo S/N, Barrio  San Mateo, Huichapan, Hidalgo, CP. 42400",UMF Huichapan
Hidalgo,Jacala de Ledezma,Hidalgo,HGIST000205,Unidad de Medicina Familiar,Jacala,Primer Nivel,Propia,20.3801,-99.652,Avenida,Frijoles,S/N,Barrio,Cerrito,42200,"Avenida Frijoles S/N, Barrio Cerrito, Jacala de Ledezma, Hidalgo, CP. 42200",UMF Jacala
Hidalgo,Nopala de Villagrán,Hidalgo,HGIST000234,Consultorio de Atención Familiar,Nopala,Primer Nivel,Subrogada,20.2514,-99.6442,Calle,Gomez Farias,S/N,Colonia,Centro,42470,"Calle Gomez Farias S/N, Colonia Centro, Nopala de Villagrán, Hidalgo, CP. 42470",CAF Nopala
Hidalgo,Tasquillo,Hidalgo,HGIST000275,Unidad de Medicina Familiar,Tasquillo,Primer Nivel,Propia,20.5534,-99.3126,Avenida,de Los Fresnos,S/N,Colonia,Centro,42380,"Avenida de Los Fresnos S/N, Colonia Centro, Tasquillo, Hidalgo, CP. 42380",UMF Tasquillo
Hidalgo,Tecozautla,Hidalgo,HGIST000280,Unidad de Medicina Familiar,Tecozautla,Primer Nivel,Propia,20.5257,-99.6354,Calle,"20 de Noviembre, Esq. 16 de Enero Sur",S/N,Barrio,La Metralla,42440,"Calle 20 de Noviembre, Esq. 16 de Enero Sur S/N, Barrio La Metralla, Tecozautla, Hidalgo, CP. 42440",UMF Tecozautla
Hidalgo,Zimapán,Hidalgo,HGIST000362,Consultorio de Atención Familiar,Zimapán,Primer Nivel,Subrogada,20.7387,-99.3771,Avenida,Centenario,S/N,Colonia,Centro,42330,"Avenida Centenario S/N, Colonia Centro, Zimapán, Hidalgo, CP. 42330",CAF Zimapán
Hidalgo,Tulancingo de Bravo,Hidalgo,HGIST000140,Clínica de Medicina Familiar,Tulancingo,Primer Nivel,Propia,20.0703,-98.3747,Calle,Johannes Brahams,S/N,Colonia,Jardínes Del Sur,43660,"Calle Johannes Brahams S/N, Colonia Jardínes Del Sur, Tulancingo de Bravo, Hidalgo, CP. 43660",CMF Tulancingo
Hidalgo,Tenango de Doria,Hidalgo,HGIST000292,Consultorio de Atención Familiar,Tenango de Doria,Primer Nivel,En Proceso de Regularización,20.3363,-98.224,Calle,Bachilleres,S/N,Colonia,Olimpica,43480,"Calle Bachilleres S/N, Colonia Olimpica, Tenango de Doria, Hidalgo, CP. 43480",CAF Tenango de Doria
Hidalgo,Huejutla de Reyes,Hidalgo,HGIST000041,Clinica Hospital,Huejutla de Reyes,Segundo Nivel,Propia,21.1343,-98.4089,Carretera,Pachuca - Huejutla de Reyes,S/N,Colonia,La Lomita,43000,"Carretera Pachuca - Huejutla de Reyes S/N, Colonia La Lomita, Huejutla de Reyes, Hidalgo, CP. 43000",CH Huejutla de Reyes
Hidalgo,Huautla,Hidalgo,HGIST000193,Consultorio de Atención Familiar,Huautla,Primer Nivel,En Proceso de Regularización,21.0291,-98.2899,Calle,Rafael Olivares Y Jose Castelan,S/N,Barrio,Alto,43050,"Calle Rafael Olivares Y Jose Castelan S/N, Barrio Alto, Huautla, Hidalgo, CP. 43050",CAF Huautla
Hidalgo,San Felipe Orizatlán,Hidalgo,HGIST000246,Consultorio de Atención Familiar,San Felipe Orizatlán,Primer Nivel,En Proceso de Regularización,21.1679,-98.6081,Calle,Vicente Suárez Con Juan Escutia,S/N,Colonia,Loma Bonita,43020,"Calle Vicente Suárez Con Juan Escutia S/N, Colonia Loma Bonita, San Felipe Orizatlán, Hidalgo, CP. 43020",CAF San Felipe Orizatlán
Hidalgo,Tlanchinol,Hidalgo,HGIST000321,Unidad de Medicina Familiar,Tlanchinol,Primer Nivel,Propia,20.9847,-98.6698,Avenida,Mexico -Tampico,S/N,Colonia,Vista Hermosa,43150,"Avenida Mexico -Tampico S/N, Colonia Vista Hermosa, Tlanchinol, Hidalgo, CP. 43150",UMF Tlanchinol
Hidalgo,Calnali,Hidalgo,HGIST000176,Consultorio de Atención Familiar,Calnali,Primer Nivel,Subrogada,20.8969,-98.583,Avenida,Cuahutémoc,S/N,Barrio,Tlala ,43230,"Avenida Cuahutémoc S/N, Barrio Tlala , Calnali, Hidalgo, CP. 43230",CAF Calnali
Hidalgo,Molango de Escamilla,Hidalgo,HGIST000094,Unidad de Medicina Familiar,Molango,Primer Nivel,Propia,20.7858,-98.7312,Calle,Corregidora,S/N,Barrio,La Alameda ,43100,"Calle Corregidora S/N, Barrio La Alameda , Molango de Escamilla, Hidalgo, CP. 43100",UMF Molango
Hidalgo,Xochicoatlán,Hidalgo,HGIST000345,Consultorio de Atención Familiar,Xochicoatlán,Primer Nivel,Subrogada,20.7768,-98.6815,Calle,Plan de Agua,S/N,Barrio,Plan De Agua,43250,"Calle Plan de Agua S/N, Barrio Plan De Agua, Xochicoatlán, Hidalgo, CP. 43250",CAF Xochicoatlán
Hidalgo,Chapulhuacán,Hidalgo,HGIST000181,Consultorio de Atención Familiar,Chapulhuacán,Primer Nivel,Subrogada,21.1575,-98.9056,Calle,Ignacio Allende,S/N,Colonia,La Estación Centro,42280,"Calle Ignacio Allende S/N, Colonia La Estación Centro, Chapulhuacán, Hidalgo, CP. 42280",CAF Chapulhuacán
Hidalgo,Mixquiahuala de Juárez,Hidalgo,HGIST000082,Clínica de Medicina Familiar,Mixquiahuala,Primer Nivel,Propia,20.2278,-99.2073,Calle,Ignacio Allende,S/N,Colonia,Centro,42700,"Calle Ignacio Allende S/N, Colonia Centro, Mixquiahuala de Juárez, Hidalgo, CP. 42700",CMF Mixquiahuala
Hidalgo,Francisco I. Madero,Hidalgo,HGIST000036,Unidad de Medicina Familiar,Tepatepec,Primer Nivel,Propia,20.2424,-99.0859,Calle,Alamo,S/N,Colonia,I Demarcacion,42660,"Calle Alamo S/N, Colonia I Demarcacion, Francisco I. Madero, Hidalgo, CP. 42660",UMF Tepatepec
Hidalgo,Tepeji del Río de Ocampo,Hidalgo,HGIST000111,Unidad de Medicina Familiar,Tepeji del Río,Primer Nivel,Propia,19.901,-99.3461,Cerrada, Ignacio Ramírez,S/N,Colonia,Ignacio Ramirez,42850,"Cerrada  Ignacio Ramírez S/N, Colonia Ignacio Ramirez, Tepeji del Río de Ocampo, Hidalgo, CP. 42850",UMF Tepeji del Río
Hidalgo,Tezontepec de Aldama,Hidalgo,HGIST000316,Unidad de Medicina Familiar,Tezontepec de Aldama,Primer Nivel,Propia,20.192,-99.2757,Calle,Manantiales,S/N,Colonia,Centro,42760,"Calle Manantiales S/N, Colonia Centro, Tezontepec de Aldama, Hidalgo, CP. 42760",UMF Tezontepec de Aldama
Hidalgo,Tlaxcoapan,Hidalgo,HGIST000333,Unidad de Medicina Familiar,Tlaxcoapan,Primer Nivel,Propia,20.0922,-99.2181,Avenida,Francisco I Madero,S/N,Colonia,Ciudadela,42954,"Avenida Francisco I Madero S/N, Colonia Ciudadela, Tlaxcoapan, Hidalgo, CP. 42954",UMF Tlaxcoapan
Hidalgo,Tula de Allende,Hidalgo,HGIST000135,Unidad de Medicina Familiar,Tula de Allende,Primer Nivel,Propia,20.0506,-99.3516,Prolongación,20 de Noviembre,S/N,Colonia,FOVISSSTE,42807,"Prolongación 20 de Noviembre S/N, Colonia FOVISSSTE, Tula de Allende, Hidalgo, CP. 42807",UMF Tula de Allende
Hidalgo,Pachuca de soto,Hidalgo,HGIST000386,Clínica de Medicina Familiar con Especialidades,Pachuca,Segundo Nivel,Propia,20.0641,-98.7769,Avenida,Lic. Javier Rojo Gómez,S/N,Fraccionamiento,Juan C. Doria,42083,"Avenida Lic. Javier Rojo Gómez S/N, Fraccionamiento Juan C. Doria, Pachuca de soto, Hidalgo, CP. 42083",CMFE Pachuca
Hidalgo,Actopan,Hidalgo,HGIST000012,Unidad de Medicina Familiar,Actopan,Primer Nivel,Propia,20.2764,-98.9472,Calle,Manuel Altamirano,S/N,Colonia,Aviación,42500,"Calle Manuel Altamirano S/N, Colonia Aviación, Actopan, Hidalgo, CP. 42500",UMF Actopan
Hidalgo,Apan,Hidalgo,HGIST000024,Unidad de Medicina Familiar,Apan,Primer Nivel,Propia,19.7112,-98.4582,Prolongación,Hidalgo,S/N,Fraccionamiento,Los Capulines,43908,"Prolongación Hidalgo S/N, Fraccionamiento Los Capulines, Apan, Hidalgo, CP. 43908",UMF Apan
Hidalgo,Atotonilco el Grande,Hidalgo,HGIST000164,Consultorio de Atención Familiar,Atotonilco el Grande,Primer Nivel,Subrogada,20.2838,-98.673,Camino,San Miguel,S/N,Barrio, Los Nogales,43300,"Camino San Miguel S/N, Barrio  Los Nogales, Atotonilco el Grande, Hidalgo, CP. 43300",CAF Atotonilco el Grande
Hidalgo,Metztitlán,Hidalgo,HGIST000070,Unidad de Medicina Familiar,Metztitlán,Primer Nivel,Propia,20.5968,-98.7668,Calle,2 de Febrero,S/N,Barrio,Coatlan,43350,"Calle 2 de Febrero S/N, Barrio Coatlan, Metztitlán, Hidalgo, CP. 43350",UMF Metztitlán
Hidalgo,Mineral del Monte,Hidalgo,HGIST000210,Unidad de Medicina Familiar,Mineral del Monte,Primer Nivel,Propia,20.1336,-98.6742,Calle,Campo Junior,S/N,Barrio, El Purero,42135,"Calle Campo Junior S/N, Barrio  El Purero, Mineral del Monte, Hidalgo, CP. 42135",UMF Mineral del Monte
Hidalgo,Tepeapulco,Hidalgo,HGIST000304,Unidad de Medicina Familiar,Tepeapulco,Primer Nivel,Propia,19.757,-98.5853,Calle,"Tesatla, S/N, Villas de Sahagun",S/N,Colonia,"Tesatla, Villas De Sahagun",43970,"Calle Tesatla, S/N, Villas de Sahagun S/N, Colonia Tesatla, Villas De Sahagun, Tepeapulco, Hidalgo, CP. 43970",UMF Tepeapulco
Hidalgo,Tizayuca,Hidalgo,HGIST000123,Unidad de Medicina Familiar,Tizayuca,Primer Nivel,Propia,19.8353,-98.9839,Avenida,Francisco I. Madero,S/N,Colonia, Atempa,43800,"Avenida Francisco I. Madero S/N, Colonia  Atempa, Tizayuca, Hidalgo, CP. 43800",UMF Tizayuca
Hidalgo,Zacualtipán de Ángeles,Hidalgo,HGIST000152,Unidad de Medicina Familiar,Zacualtipán,Primer Nivel,Propia,20.6571,-98.6585,Calle,Héroes de la Revolución Mexicana,S/N,Colonia,Adolfo López Matéos,43200,"Calle Héroes de la Revolución Mexicana S/N, Colonia Adolfo López Matéos, Zacualtipán de Ángeles, Hidalgo, CP. 43200",UMF Zacualtipán
Hidalgo,Zapotlán de Juárez,Hidalgo,HGIST000350,Consultorio de Atención Familiar,Zapotlán de Juárez,Primer Nivel,Subrogada,19.9739,-98.8626,Calle,Prof. Eduardo Vera Gutierrez,S/N,Colonia,Centro,42190,"Calle Prof. Eduardo Vera Gutierrez S/N, Colonia Centro, Zapotlán de Juárez, Hidalgo, CP. 42190",CAF Zapotlán de Juárez
Hidalgo,Pachuca de Soto,Hidalgo,HGIST000251,Consultorio Médico en Centro de Trabajo,"Servicio Geológico Mexicano, Los Arcos",Primer Nivel,Convenio,20.0902,-98.769,Avenida,Real del Monte,S/N,Fraccionamiento,Los Arcos,42083,"Avenida Real del Monte S/N, Fraccionamiento Los Arcos, Pachuca de Soto, Hidalgo, CP. 42083","CMCT Servicio Geológico Mexicano, Los Arcos"
Hidalgo,Pachuca de Soto,Hidalgo,HGIST000263,Consultorio Médico en Centro de Trabajo,Pensionados y Jubilados (ISSSTE),Primer Nivel,Convenio,20.1052,-98.7752,Boulevard,Ramon G. Bonfil,S/N,Residencial, Parque Esmeralda,42084,"Boulevard Ramon G. Bonfil S/N, Residencial  Parque Esmeralda, Pachuca de Soto, Hidalgo, CP. 42084",CMCT Pensionados y Jubilados (ISSSTE)
Jalisco,Guadalajara,Jalisco,JCIST000074,Clínica de Medicina Familiar,"Dr. Arturo Glez, Guadalajara No. 1",Primer Nivel,Propia,20.688,-103.3298,Calle,Centro Médico,S/N,Fraccionamiento,Independencia Oriente,44340,"Calle Centro Médico S/N, Fraccionamiento Independencia Oriente, Guadalajara, Jalisco, CP. 44340","CMF Dr. Arturo Glez, Guadalajara No. 1"
Jalisco,Ahualulco de Mercado,Jalisco,JCIST000161,Unidad de Medicina Familiar,Ahualulco de Mercado,Primer Nivel,Propia,20.6907,-103.9714,Calle,5 De Febrero,S/N,Colonia,La Estación,46735,"Calle 5 De Febrero S/N, Colonia La Estación, Ahualulco de Mercado, Jalisco, CP. 46735",UMF Ahualulco de Mercado
Jalisco,Ameca,Jalisco,JCIST000016,Unidad de Medicina Familiar,Ameca,Primer Nivel,En Proceso de Regularización,20.5529,-104.0487,Calle,Portezuelo,S/N,Ranchería, El Nogal,46627,"Calle Portezuelo S/N, Ranchería  El Nogal, Ameca, Jalisco, CP. 46627",UMF Ameca
Jalisco,Colotlán,Jalisco,JCIST000272,Consultorio de Atención Familiar,Colotlán,Primer Nivel,Subrogada,22.114,-103.2712,Calle,Centenario,S/N,Colonia,Centro,46200,"Calle Centenario S/N, Colonia Centro, Colotlán, Jalisco, CP. 46200",CAF Colotlán
Jalisco,Villa Guerrero,Jalisco,JCIST000820,Consultorio de Atención Familiar,Villa Guerrero,Primer Nivel,Subrogada,21.9854,-103.5954,Calle,20 De Noviembre,S/N,Colonia,Centro,46100,"Calle 20 De Noviembre S/N, Colonia Centro, Villa Guerrero, Jalisco, CP. 46100",CAF Villa Guerrero
Jalisco,Magdalena,Jalisco,JCIST000511,Consultorio de Atención Familiar,Magdalena,Primer Nivel,Rentada,20.9094,-103.9787,Calle,Felix María Martínez,S/N,Colonia,Centro,46470,"Calle Felix María Martínez S/N, Colonia Centro, Magdalena, Jalisco, CP. 46470",CAF Magdalena
